************ program startup 10:11:42 01-07-2006 ************

$GPRMC,180944,A,3926.0580,N,11946.0001,W,0.0,153.8,070106,15.2,E,A*39
$GPRMB,A,,,,,,,,,,,,A,A*0B
$GPGGA,180944,3926.0580,N,11946.0001,W,1,10,1.4,1378.5,M,-22.1,M,,*49
$GPGSA,A,3,02,04,05,07,09,17,24,26,28,29,,,3.4,1.4,3.1*3A
$GPGSV,3,1,12,02,25,181,47,04,49,143,50,05,14,297,41,07,65,039,53*7D
$GPGSV,3,2,12,09,50,298,49,17,50,046,46,24,43,072,48,26,11,224,45*73
$GPGSV,3,3,12,28,25,096,43,29,06,216,43,35,10,105,43,41,00,000,00*71
$GPGLL,3926.0580,N,11946.0001,W,180944,A,A*5C
$GPBOD,,T,,M,,*47
$PGRME,4.3,M,7.5,M,8.7,M*24
$PGRMZ,4523,f,3*2B
$GPRTE,1,1,c,*37

$GPRMC,180946,A,3926.0580,N,11946.0001,W,0.0,153.8,070106,15.2,E,D*3E
$GPRMB,A,,,,,,,,,,,,A,D*0E
$GPGGA,180946,3926.0580,N,11946.0001,W,2,10,1.1,1378.4,M,-22.1,M,,*4C
$GPGSA,A,3,02,04,05,07,09,17,24,26,28,29,,,2.1,1.1,1.8*30
$GPGSV,3,1,12,02,25,181,47,04,49,143,50,05,14,297,40,07,65,039,53*7C
$GPGSV,3,2,12,09,50,298,49,17,50,046,46,24,43,072,48,26,11,224,45*73
$GPGSV,3,3,12,28,25,096,43,29,06,216,43,35,10,105,42,41,00,000,00*70
$GPGLL,3926.0580,N,11946.0001,W,180946,A,D*5B
$GPBOD,,T,,M,,*47
$PGRME,4.3,M,7.6,M,8.7,M*27
$PGRMZ,4522,f,3*2A
$GPRTE,1,1,c,*37

$GPRMC,180948,A,3926.0579,N,11946.0001,W,0.0,153.8,070106,15.2,E,D*36
$GPRMB,A,,,,,,,,,,,,A,D*0E
$GPGGA,180948,3926.0579,N,11946.0001,W,2,10,1.1,1378.4,M,-22.1,M,,*44
$GPGSA,A,3,02,04,05,07,09,17,24,26,28,29,,,2.1,1.1,1.8*30
$GPGSV,3,1,12,02,25,181,47,04,49,143,51,05,14,297,40,07,65,039,54*7A
$GPGSV,3,2,12,09,50,298,49,17,50,046,46,24,43,072,48,26,11,224,45*73
$GPGSV,3,3,12,28,25,096,43,29,06,216,43,35,10,105,42,41,00,000,00*70
$GPGLL,3926.0579,N,11946.0001,W,180948,A,D*53
$GPBOD,,T,,M,,*47
$PGRME,4.3,M,7.6,M,8.7,M*27
$PGRMZ,4522,f,3*2A
$GPRTE,1,1,c,*37

$GPRMC,180950,A,3926.0579,N,11946.0001,W,0.0,153.8,070106,15.2,E,D*3F
$GPRMB,A,,,,,,,,,,,,A,D*0E
$GPGGA,180950,3926.0579,N,11946.0001,W,2,10,1.1,1378.3,M,-22.1,M,,*4A
$GPGSA,A,3,02,04,05,07,09,17,24,26,28,29,,,2.1,1.1,1.8*30
$GPGSV,3,1,12,02,25,181,47,04,49,143,50,05,14,297,39,07,65,039,53*72
$GPGSV,3,2,12,09,50,298,49,17,50,046,46,24,43,072,48,26,11,224,45*73
$GPGSV,3,3,12,28,25,096,44,29,06,216,42,35,10,105,41,41,00,000,00*75
$GPGLL,3926.0579,N,11946.0001,W,180950,A,D*5A
$GPBOD,,T,,M,,*47
$PGRME,4.3,M,7.6,M,8.7,M*27
$PGRMZ,4522,f,3*2A
$GPRTE,1,1,c,*37

$GPRMC,180952,A,3926.0579,N,11946.0001,W,0.0,153.8,070106,15.2,E,D*3D
$GPRMB,A,,,,,,,,,,,,A,D*0E
$GPGGA,180952,3926.0579,N,11946.0001,W,2,10,1.1,1377.9,M,-22.1,M,,*4D
$GPGSA,A,3,02,04,05,07,09,17,24,26,28,29,,,2.3,1.1,2.0*39
$GPGSV,3,1,12,02,26,181,47,04,49,143,50,05,14,297,38,07,65,039,53*70
$GPGSV,3,2,12,09,50,298,49,17,50,046,46,24,43,072,48,26,11,224,44*72
$GPGSV,3,3,12,28,25,096,43,29,06,216,41,35,10,105,41,41,00,000,00*71
$GPGLL,3926.0579,N,11946.0001,W,180952,A,D*58
$GPBOD,,T,,M,,*47
$PGRME,4.3,M,7.7,M,8.8,M*29
$PGRMZ,4521,f,3*29
$GPRTE,1,1,c,*37

$GPRMC,180954,A,3926.0578,N,11946.0002,W,0.0,153.8,070106,15.2,E,D*39
$GPRMB,A,,,,,,,,,,,,A,D*0E
$GPGGA,180954,3926.0578,N,11946.0002,W,2,10,1.1,1377.7,M,-22.1,M,,*47
$GPGSA,A,3,02,04,05,07,09,17,24,26,28,29,,,2.4,1.1,2.1*3F
$GPGSV,3,1,12,02,26,181,46,04,49,143,50,05,14,297,38,07,65,039,53*71
$GPGSV,3,2,12,09,50,298,49,17,50,046,45,24,43,072,48,26,11,224,45*70
$GPGSV,3,3,12,28,25,096,43,29,06,216,40,35,10,105,42,41,00,000,00*73
$GPGLL,3926.0578,N,11946.0002,W,180954,A,D*5C
$GPBOD,,T,,M,,*47
$PGRME,4.3,M,7.7,M,8.8,M*29
$PGRMZ,4520,f,3*28
$GPRTE,1,1,c,*37

$GPRMC,180956,A,3926.0578,N,11946.0002,W,0.0,153.8,070106,15.2,E,D*3B
$GPRMB,A,,,,,,,,,,,,A,D*0E
$GPGGA,180956,3926.0578,N,11946.0002,W,2,08,1.1,1377.8,M,-22.1,M,,*43
$GPGSA,A,3,02,04,05,07,09,17,24,,28,,,,2.1,1.1,1.8*3F
$GPGSV,3,1,12,02,26,181,46,04,49,143,50,05,14,297,38,07,65,039,53*71
$GPGSV,3,2,12,09,50,298,50,17,50,046,45,24,43,072,48,26,11,224,45*78
$GPGSV,3,3,12,28,25,096,43,29,06,216,39,35,10,105,42,41,00,000,00*7D
$GPGLL,3926.0578,N,11946.0002,W,180956,A,D*5E
$GPBOD,,T,,M,,*47
$PGRME,4.3,M,7.7,M,8.8,M*29
$PGRMZ,4520,f,3*28
$GPRTE,1,1,c,*37

$GPRMC,180958,A,3926.0578,N,11946.0002,W,0.0,153.8,070106,15.2,E,D*35
$GPRMB,A,,,,,,,,,,,,A,D*0E
$GPGGA,180958,3926.0578,N,11946.0002,W,2,08,1.1,1378.0,M,-22.1,M,,*4A
$GPGSA,A,3,02,04,05,07,09,17,24,,28,,,,2.1,1.1,1.8*3F
$GPGSV,3,1,12,02,26,181,44,04,49,143,50,05,14,297,39,07,65,039,52*73
$GPGSV,3,2,12,09,50,298,49,17,50,046,43,24,43,072,48,26,11,224,45*76
$GPGSV,3,3,12,28,25,096,44,29,06,216,40,35,10,105,41,41,00,000,00*77
$GPGLL,3926.0578,N,11946.0002,W,180958,A,D*50
$GPBOD,,T,,M,,*47
$PGRME,4.3,M,7.7,M,8.8,M*29
$PGRMZ,4521,f,3*29
$GPRTE,1,1,c,*37

$GPRMC,181000,A,3926.0577,N,11946.0002,W,0.0,153.8,070106,15.2,E,D*3F
$GPRMB,A,,,,,,,,,,,,A,D*0E
$GPGGA,181000,3926.0577,N,11946.0002,W,2,08,1.1,1378.2,M,-22.1,M,,*42
$GPGSA,A,3,02,04,05,07,09,17,24,,28,,,,2.1,1.1,1.8*3F
$GPGSV,3,1,12,02,26,181,44,04,49,142,50,05,14,297,39,07,65,039,52*72
$GPGSV,3,2,12,09,50,298,49,17,50,046,41,24,43,072,48,26,11,224,44*75
$GPGSV,3,3,12,28,25,096,44,29,06,216,40,35,10,105,41,41,00,000,00*77
$GPGLL,3926.0577,N,11946.0002,W,181000,A,D*5A
$GPBOD,,T,,M,,*47
$PGRME,4.3,M,7.7,M,8.9,M*28
$PGRMZ,4522,f,3*2A
$GPRTE,1,1,c,*37
$GPRMC,181002,A,3926.0577,N,11946.0002,W,0.0,153.8,070106,15.2,E,D*3D
$GPRMB,A,,,,,,,,,,,,A,D*0E
$GPGGA,181002,3926.0577,N,11946.0002,W,2,08,1.1,1378.4,M,-22.1,M,,*46
$GPGSA,A,3,02,04,05,07,09,17,24,,28,,,,2.2,1.1,1.9*3D
$GPGSV,3,1,12,02,26,181,44,04,49,142,50,05,14,297,39,07,65,039,52*72
$GPGSV,3,2,12,09,50,298,49,17,50,046,40,24,43,072,48,26,11,224,44*74
$GPGSV,3,3,12,28,25,096,45,29,06,216,40,35,10,105,41,41,00,000,00*76
$GPGLL,3926.0577,N,11946.0002,W,181002,A,D*58
$GPBOD,,T,,M,,*47
$PGRME,4.3,M,7.7,M,8.9,M*28
$PGRMZ,4522,f,3*2A
$GPRTE,1,1,c,*37

$GPRMC,181004,A,3926.0577,N,11946.0003,W,0.0,153.8,070106,15.2,E,D*3A
$GPRMB,A,,,,,,,,,,,,A,D*0E
$GPGGA,181004,3926.0577,N,11946.0003,W,2,09,1.0,1378.5,M,-22.1,M,,*40
$GPGSA,A,3,02,04,05,07,09,17,24,26,28,,,,2.0,1.0,1.8*3B
$GPGSV,3,1,12,02,26,181,43,04,49,142,50,05,15,297,38,07,65,039,51*76
$GPGSV,3,2,12,09,50,298,49,17,50,046,41,24,43,072,49,26,11,224,44*74
$GPGSV,3,3,12,28,25,096,46,29,06,216,40,35,10,105,41,41,00,000,00*75
$GPGLL,3926.0577,N,11946.0003,W,181004,A,D*5F
$GPBOD,,T,,M,,*47
$PGRME,4.2,M,7.7,M,8.9,M*29
$PGRMZ,4522,f,3*2A
$GPRTE,1,1,c,*37

$GPRMC,181006,A,3926.0577,N,11946.0003,W,0.0,153.8,070106,15.2,E,D*38
$GPRMB,A,,,,,,,,,,,,A,D*0E
$GPGGA,181006,3926.0577,N,11946.0003,W,2,09,1.0,1378.3,M,-22.1,M,,*44
$GPGSA,A,3,02,04,05,07,09,17,24,26,28,,,,2.1,1.0,1.8*3A
$GPGSV,3,1,12,02,26,181,44,04,49,142,50,05,15,297,37,07,65,039,51*7E
$GPGSV,3,2,12,09,50,298,49,17,50,046,41,24,43,072,49,26,11,224,44*74
$GPGSV,3,3,12,28,25,096,46,29,06,216,40,35,10,105,41,41,00,000,00*75
$GPGLL,3926.0577,N,11946.0003,W,181006,A,D*5D
$GPBOD,,T,,M,,*47
$PGRME,4.3,M,8.0,M,9.1,M*29
$PGRMZ,4522,f,3*2A
$GPRTE,1,1,c,*37

$GPRMC,181008,A,3926.0576,N,11946.0003,W,0.0,153.8,070106,15.2,E,D*37
$GPRMB,A,,,,,,,,,,,,A,D*0E
$GPGGA,181008,3926.0576,N,11946.0003,W,2,09,1.0,1378.6,M,-22.1,M,,*4E
$GPGSA,A,3,02,04,05,07,09,17,24,26,28,,,,2.0,1.0,1.8*3B
$GPGSV,3,1,12,02,26,181,44,04,49,142,50,05,15,297,38,07,65,039,51*71
$GPGSV,3,2,12,09,50,298,49,17,50,046,41,24,43,072,49,26,11,224,44*74
$GPGSV,3,3,12,28,25,096,47,29,06,216,40,35,10,105,41,41,00,000,00*74
$GPGLL,3926.0576,N,11946.0003,W,181008,A,D*52
$GPBOD,,T,,M,,*47
$PGRME,4.2,M,7.8,M,8.9,M*26
$PGRMZ,4523,f,3*2B
$GPRTE,1,1,c,*37

$GPRMC,181010,A,3926.0576,N,11946.0003,W,0.0,153.8,070106,15.2,E,D*3E
$GPRMB,A,,,,,,,,,,,,A,D*0E
$GPGGA,181010,3926.0576,N,11946.0003,W,2,09,1.0,1378.9,M,-22.1,M,,*48
$GPGSA,A,3,02,04,05,07,09,17,24,26,28,,,,2.0,1.0,1.8*3B
$GPGSV,3,1,12,02,26,181,44,04,49,142,50,05,15,297,39,07,65,039,51*70
$GPGSV,3,2,12,09,50,298,49,17,50,046,40,24,43,072,49,26,11,224,44*75
$GPGSV,3,3,12,28,25,096,47,29,06,216,41,35,10,105,41,41,00,000,00*75
$GPGLL,3926.0576,N,11946.0003,W,181010,A,D*5B
$GPBOD,,T,,M,,*47
$PGRME,4.2,M,7.8,M,8.9,M*26
$PGRMZ,4524,f,3*2C
$GPRTE,1,1,c,*37

$GPRMC,181012,A,3926.0576,N,11946.0003,W,0.0,153.8,070106,15.2,E,D*3C
$GPRMB,A,,,,,,,,,,,,A,D*0E
$GPGGA,181012,3926.0576,N,11946.0003,W,2,09,1.0,1379.1,M,-22.1,M,,*43
$GPGSA,A,3,02,04,05,07,09,17,24,26,28,,,,2.1,1.0,1.8*3A
$GPGSV,3,1,12,02,26,181,44,04,49,142,50,05,15,297,37,07,64,040,51*71
$GPGSV,3,2,12,09,50,298,49,17,50,046,42,24,43,072,49,26,11,224,44*77
$GPGSV,3,3,12,28,25,096,47,29,06,216,40,35,10,105,41,41,00,000,00*74
$GPGLL,3926.0576,N,11946.0003,W,181012,A,D*59
$GPBOD,,T,,M,,*47
$PGRME,4.3,M,8.1,M,9.2,M*2B
$PGRMZ,4524,f,3*2C
$GPRTE,1,1,c,*37

$GPRMC,181014,A,3926.0576,N,11946.0004,W,0.0,153.8,070106,15.2,E,D*3D
$GPRMB,A,,,,,,,,,,,,A,D*0E
$GPGGA,181014,3926.0576,N,11946.0004,W,2,09,1.0,1379.1,M,-22.1,M,,*42
$GPGSA,A,3,02,04,05,07,09,17,24,26,28,,,,2.1,1.0,1.8*3A
$GPGSV,3,1,12,02,26,181,45,04,49,142,50,05,15,297,36,07,64,040,51*71
$GPGSV,3,2,12,09,50,298,49,17,50,046,42,24,43,072,49,26,11,224,44*77
$GPGSV,3,3,12,28,25,096,46,29,06,216,41,35,10,105,41,41,00,000,00*74
$GPGLL,3926.0576,N,11946.0004,W,181014,A,D*58
$GPBOD,,T,,M,,*47
$PGRME,4.3,M,8.1,M,9.2,M*2B
$PGRMZ,4524,f,3*2C
$GPRTE,1,1,c,*37

$GPRMC,181016,A,3926.0576,N,11946.0004,W,0.0,153.8,070106,15.2,E,D*3F
$GPRMB,A,,,,,,,,,,,,A,D*0E
$GPGGA,181016,3926.0576,N,11946.0004,W,2,10,1.0,1379.1,M,-22.1,M,,*48
$GPGSA,A,3,02,04,05,07,09,17,24,26,28,,35,,2.1,1.0,1.8*3C
$GPGSV,3,1,12,02,26,181,45,04,49,142,50,05,15,297,36,07,64,040,51*71
$GPGSV,3,2,12,09,50,298,49,17,50,046,42,24,43,072,49,26,11,224,44*77
$GPGSV,3,3,12,28,25,096,47,29,06,216,41,35,10,105,41,41,00,000,00*75
$GPGLL,3926.0576,N,11946.0004,W,181016,A,D*5A
$GPBOD,,T,,M,,*47
$PGRME,4.1,M,7.0,M,8.1,M*25
$PGRMZ,4525,f,3*2D
$GPRTE,1,1,c,*37

$GPRMC,181018,A,3926.0575,N,11946.0004,W,0.0,153.8,070106,15.2,E,D*32
$GPRMB,A,,,,,,,,,,,,A,D*0E
$GPGGA,181018,3926.0575,N,11946.0004,W,2,10,1.0,1379.0,M,-22.1,M,,*44
$GPGSA,A,3,02,04,05,07,09,17,24,26,28,,35,,2.1,1.0,1.8*3C
$GPGSV,3,1,12,02,26,181,45,04,49,142,50,05,15,297,36,07,64,040,51*71
$GPGSV,3,2,12,09,50,298,49,17,50,046,42,24,43,072,49,26,11,224,44*77
$GPGSV,3,3,12,28,25,096,46,29,06,216,41,35,10,105,41,41,00,000,00*74
$GPGLL,3926.0575,N,11946.0004,W,181018,A,D*57
$GPBOD,,T,,M,,*47
$PGRME,4.1,M,7.0,M,8.1,M*25
$PGRMZ,4524,f,3*2C
$GPRTE,1,1,c,*37

$GPRMC,181020,A,3926.0575,N,11946.0004,W,0.0,153.8,070106,15.2,E,D*39
$GPRMB,A,,,,,,,,,,,,A,D*0E
$GPGGA,181020,3926.0575,N,11946.0004,W,2,10,0.9,1378.8,M,-22.1,M,,*4E
$GPGSA,A,3,02,04,05,07,09,17,24,26,28,,35,,1.7,0.9,1.4*3D
$GPGSV,3,1,12,02,26,181,45,04,49,142,50,05,15,297,36,07,64,040,51*71
$GPGSV,3,2,12,09,51,298,50,17,50,046,42,24,43,072,49,26,11,224,44*7E
$GPGSV,3,3,12,28,25,096,46,29,06,216,41,35,10,105,41,41,00,000,00*74
$GPGLL,3926.0575,N,11946.0004,W,181020,A,D*5C
$GPBOD,,T,,M,,*47
$PGRME,4.1,M,7.0,M,8.1,M*25
$PGRMZ,4524,f,3*2C
$GPRTE,1,1,c,*37

$GPRMC,181022,A,3926.0575,N,11946.0005,W,0.0,153.8,070106,15.2,E,D*3A
$GPRMB,A,,,,,,,,,,,,A,D*0E
$GPGGA,181022,3926.0575,N,11946.0005,W,2,09,0.9,1378.6,M,-22.1,M,,*4B
$GPGSA,A,3,02,04,05,07,09,17,24,26,28,,,,1.7,0.9,1.5*3A
$GPGSV,3,1,12,02,26,181,45,04,49,142,50,05,15,297,37,07,64,040,51*70
$GPGSV,3,2,12,09,51,298,50,17,50,046,42,24,43,072,49,26,11,224,44*7E
$GPGSV,3,3,12,28,25,096,46,29,06,216,41,35,10,105,40,41,00,000,00*75
$GPGLL,3926.0575,N,11946.0005,W,181022,A,D*5F
$GPBOD,,T,,M,,*47
$PGRME,4.1,M,7.1,M,8.2,M*27
$PGRMZ,4523,f,3*2B
$GPRTE,1,1,c,*37

$GPRMC,181024,A,3926.0575,N,11946.0005,W,0.0,153.8,070106,15.2,E,D*3C
$GPRMB,A,,,,,,,,,,,,A,D*0E
$GPGGA,181024,3926.0575,N,11946.0005,W,2,09,1.0,1378.6,M,-22.1,M,,*45
$GPGSA,A,3,02,04,05,07,09,17,24,26,28,,,,1.8,1.0,1.5*3D
$GPGSV,3,1,12,02,26,181,45,04,49,142,50,05,15,297,37,07,64,040,51*70
$GPGSV,3,2,12,09,51,298,50,17,50,046,42,24,43,072,49,26,11,224,44*7E
$GPGSV,3,3,12,28,25,096,47,29,06,216,41,35,10,105,41,41,00,000,00*75
$GPGLL,3926.0575,N,11946.0005,W,181024,A,D*59
$GPBOD,,T,,M,,*47
$PGRME,4.1,M,7.1,M,8.2,M*27
$PGRMZ,4523,f,3*2B
$GPRTE,1,1,c,*37

$GPRMC,181026,A,3926.0575,N,11946.0005,W,0.0,153.8,070106,15.2,E,D*3E
$GPRMB,A,,,,,,,,,,,,A,D*0E
$GPGGA,181026,3926.0575,N,11946.0005,W,2,09,1.0,1378.7,M,-22.1,M,,*46
$GPGSA,A,3,02,04,05,07,09,17,24,26,28,,,,1.8,1.0,1.6*3E
$GPGSV,3,1,12,02,26,181,45,04,49,142,50,05,15,297,38,07,64,040,51*7F
$GPGSV,3,2,12,09,51,298,50,17,50,046,42,24,43,072,49,26,11,224,44*7E
$GPGSV,3,3,12,28,25,096,47,29,06,216,42,35,10,105,40,41,00,000,00*77
$GPGLL,3926.0575,N,11946.0005,W,181026,A,D*5B
$GPBOD,,T,,M,,*47
$PGRME,4.1,M,7.1,M,8.2,M*27
$PGRMZ,4523,f,3*2B
$GPRTE,1,1,c,*37

$GPRMC,181028,A,3926.0575,N,11946.0005,W,0.0,153.8,070106,15.2,E,D*30
$GPRMB,A,,,,,,,,,,,,A,D*0E
$GPGGA,181028,3926.0575,N,11946.0005,W,2,09,1.0,1378.9,M,-22.1,M,,*46
$GPGSA,A,3,02,04,05,07,09,17,24,26,28,,,,1.8,1.0,1.6*3E
$GPGSV,3,1,12,02,26,181,44,04,49,142,50,05,15,297,39,07,64,040,51*7F
$GPGSV,3,2,12,09,51,298,49,17,50,046,41,24,43,072,49,26,11,224,44*75
$GPGSV,3,3,12,28,25,096,47,29,06,216,42,35,10,105,40,41,00,000,00*77
$GPGLL,3926.0575,N,11946.0005,W,181028,A,D*55
$GPBOD,,T,,M,,*47
$PGRME,4.1,M,7.1,M,8.2,M*27
$PGRMZ,4524,f,3*2C
$GPRTE,1,1,c,*37

$GPRMC,181030,A,3926.0575,N,11946.0005,W,0.2,328.4,070106,15.2,E,D*39
$GPRMB,A,,,,,,,,,,,,A,D*0E
$GPGGA,181030,3926.0575,N,11946.0005,W,2,09,1.0,1379.3,M,-22.1,M,,*44
$GPGSA,A,3,02,04,05,07,09,17,24,26,28,,,,1.9,1.0,1.6*3F
$GPGSV,3,1,12,02,26,181,44,04,49,142,49,05,15,297,38,07,64,040,50*77
$GPGSV,3,2,12,09,51,298,49,17,50,046,39,24,43,072,49,26,11,224,44*7A
$GPGSV,3,3,12,28,25,096,46,29,06,216,41,35,10,105,39,41,00,000,00*7B
$GPGLL,3926.0575,N,11946.0005,W,181030,A,D*5C
$GPBOD,,T,,M,,*47
$PGRME,4.2,M,7.2,M,8.3,M*26
$PGRMZ,4525,f,3*2D
$GPRTE,1,1,c,*37

$GPRMC,181032,A,3926.0573,N,11946.0014,W,0.0,328.4,070106,15.2,E,D*3F
$GPRMB,A,,,,,,,,,,,,A,D*0E
$GPGGA,181032,3926.0573,N,11946.0014,W,2,09,1.1,1379.1,M,-22.1,M,,*43
$GPGSA,A,3,02,04,05,07,09,17,24,26,28,,,,2.3,1.1,2.0*32
$GPGSV,3,1,12,02,26,181,44,04,49,142,47,05,15,297,37,07,64,040,48*7F
$GPGSV,3,2,12,09,51,298,47,17,50,046,42,24,43,072,48,26,11,224,42*7F
$GPGSV,3,3,12,28,25,096,00,29,06,216,39,35,10,105,00,41,00,000,00*7C
$GPGLL,3926.0573,N,11946.0014,W,181032,A,D*58
$GPBOD,,T,,M,,*47
$PGRME,4.3,M,7.7,M,8.8,M*29
$PGRMZ,4525,f,3*2D
$GPRTE,1,1,c,*37

$GPRMC,181034,A,3926.0573,N,11946.0014,W,0.0,328.4,070106,15.2,E,D*39
$GPRMB,A,,,,,,,,,,,,A,D*0E
$GPGGA,181034,3926.0573,N,11946.0014,W,2,09,1.2,1379.1,M,-22.1,M,,*46
$GPGSA,A,3,02,04,05,07,09,17,24,26,28,,,,2.6,1.2,2.3*37
$GPGSV,3,1,12,02,26,181,44,04,49,142,44,05,15,297,37,07,64,040,48*7C
$GPGSV,3,2,12,09,51,298,46,17,50,046,44,24,43,072,48,26,11,224,40*7A
$GPGSV,3,3,12,28,25,096,00,29,06,216,00,35,10,105,00,41,00,000,00*76
$GPGLL,3926.0573,N,11946.0014,W,181034,A,D*5E
$GPBOD,,T,,M,,*47
$PGRME,4.3,M,7.9,M,9.0,M*2E
$PGRMZ,4525,f,3*2D
$GPRTE,1,1,c,*37

$GPRMC,181036,A,3926.0572,N,11946.0014,W,0.0,328.4,070106,15.2,E,D*3A
$GPRMB,A,,,,,,,,,,,,A,D*0E
$GPGGA,181036,3926.0572,N,11946.0014,W,2,09,1.2,1379.1,M,-22.1,M,,*45
$GPGSA,A,3,02,04,05,07,09,17,24,26,28,,,,2.7,1.2,2.4*31
$GPGSV,3,1,12,02,26,181,44,04,49,142,43,05,15,297,38,07,64,040,48*74
$GPGSV,3,2,12,09,51,298,46,17,50,046,46,24,43,072,49,26,11,224,38*76
$GPGSV,3,3,12,28,25,096,38,29,06,216,00,35,10,105,00,42,00,000,00*7E
$GPGLL,3926.0572,N,11946.0014,W,181036,A,D*5D
$GPBOD,,T,,M,,*47
$PGRME,4.2,M,7.8,M,8.9,M*26
$PGRMZ,4525,f,3*2D
$GPRTE,1,1,c,*37

$GPRMC,181038,A,3926.0571,N,11946.0014,W,0.0,328.4,070106,15.2,E,D*37
$GPRMB,A,,,,,,,,,,,,A,D*0E
$GPGGA,181038,3926.0571,N,11946.0014,W,2,09,1.1,1379.2,M,-22.1,M,,*48
$GPGSA,A,3,02,04,05,07,09,17,24,26,28,,,,2.1,1.1,1.8*3B
$GPGSV,3,1,12,02,26,181,44,04,49,142,43,05,15,297,37,07,64,040,48*7B
$GPGSV,3,2,12,09,51,298,45,17,50,046,47,24,43,072,50,26,11,224,37*73
$GPGSV,3,3,12,28,25,096,38,29,06,216,00,35,10,105,00,42,00,000,00*7E
$GPGLL,3926.0571,N,11946.0014,W,181038,A,D*50
$GPBOD,,T,,M,,*47
$PGRME,4.2,M,7.9,M,8.9,M*27
$PGRMZ,4525,f,3*2D
$GPRTE,1,1,c,*37

$GPRMC,181040,A,3926.0571,N,11946.0014,W,0.0,328.4,070106,15.2,E,D*38
$GPRMB,A,,,,,,,,,,,,A,D*0E
$GPGGA,181040,3926.0571,N,11946.0014,W,2,09,1.0,1378.9,M,-22.1,M,,*4C
$GPGSA,A,3,02,04,05,07,09,17,24,26,28,,,,2.0,1.0,1.8*3B
$GPGSV,3,1,12,02,26,181,44,04,49,142,42,05,15,297,37,07,64,040,48*7A
$GPGSV,3,2,12,09,51,298,45,17,50,046,48,24,43,072,50,26,11,224,37*7C
$GPGSV,3,3,12,28,25,096,39,29,06,216,32,35,10,105,00,42,00,000,00*7E
$GPGLL,3926.0571,N,11946.0014,W,181040,A,D*5F
$GPBOD,,T,,M,,*47
$PGRME,4.2,M,7.8,M,8.9,M*26
$PGRMZ,4524,f,3*2C
$GPRTE,1,1,c,*37

$GPRMC,181042,A,3926.0570,N,11946.0014,W,0.0,328.4,070106,15.2,E,D*3B
$GPRMB,A,,,,,,,,,,,,A,D*0E
$GPGGA,181042,3926.0570,N,11946.0014,W,2,09,1.1,1378.3,M,-22.1,M,,*44
$GPGSA,A,3,02,04,05,07,09,17,24,26,28,,,,2.2,1.1,1.9*39
$GPGSV,3,1,12,02,26,181,43,04,49,142,42,05,15,297,37,07,64,040,48*7D
$GPGSV,3,2,12,09,51,298,45,17,50,046,48,24,43,072,50,26,11,224,37*7C
$GPGSV,3,3,12,28,25,096,39,29,06,216,32,35,10,105,00,42,00,000,00*7E
$GPGLL,3926.0570,N,11946.0014,W,181042,A,D*5C
$GPBOD,,T,,M,,*47
$PGRME,4.2,M,7.8,M,8.9,M*26
$PGRMZ,4522,f,3*2A
$GPRTE,1,1,c,*37

$GPRMC,181044,A,3926.0570,N,11946.0014,W,0.0,328.4,070106,15.2,E,D*3D
$GPRMB,A,,,,,,,,,,,,A,D*0E
$GPGGA,181044,3926.0570,N,11946.0014,W,2,09,1.1,1378.0,M,-22.1,M,,*41
$GPGSA,A,3,02,04,05,07,09,17,24,26,28,,,,2.2,1.1,1.9*39
$GPGSV,3,1,12,02,26,181,42,04,49,142,41,05,15,297,36,07,64,040,47*71
$GPGSV,3,2,12,09,51,298,44,17,50,046,48,24,43,072,50,26,11,224,36*7C
$GPGSV,3,3,12,28,25,096,39,29,06,216,31,35,10,105,00,42,00,000,00*7D
$GPGLL,3926.0570,N,11946.0014,W,181044,A,D*5A
$GPBOD,,T,,M,,*47
$PGRME,4.2,M,7.8,M,8.9,M*26
$PGRMZ,4521,f,3*29
$GPRTE,1,1,c,*37

$GPRMC,181046,A,3926.0570,N,11946.0014,W,0.0,328.4,070106,15.2,E,D*3F
$GPRMB,A,,,,,,,,,,,,A,D*0E
$GPGGA,181046,3926.0570,N,11946.0014,W,2,09,1.2,1377.7,M,-22.1,M,,*48
$GPGSA,A,3,02,04,05,07,09,17,24,26,28,,,,2.6,1.2,2.3*37
$GPGSV,3,1,12,02,26,181,42,04,49,142,41,05,15,297,36,07,64,040,47*71
$GPGSV,3,2,12,09,51,298,44,17,50,046,48,24,43,072,50,26,11,224,35*7F
$GPGSV,3,3,12,28,25,096,39,29,06,216,31,35,10,105,00,42,00,000,00*7D
$GPGLL,3926.0570,N,11946.0014,W,181046,A,D*58
$GPBOD,,T,,M,,*47
$PGRME,4.2,M,8.1,M,9.1,M*29
$PGRMZ,4520,f,3*28
$GPRTE,1,1,c,*37

$GPRMC,181048,A,3926.0569,N,11946.0014,W,0.0,328.4,070106,15.2,E,D*39
$GPRMB,A,,,,,,,,,,,,A,D*0E
$GPGGA,181048,3926.0569,N,11946.0014,W,2,10,1.1,1377.2,M,-22.1,M,,*40
$GPGSA,A,3,02,04,05,07,09,17,24,26,28,29,,,2.2,1.1,1.9*32
$GPGSV,3,1,12,02,26,181,43,04,49,142,41,05,15,297,36,07,64,040,47*70
$GPGSV,3,2,12,09,51,298,45,17,50,046,47,24,43,072,49,26,11,224,37*7B
$GPGSV,3,3,12,28,25,096,38,29,06,216,33,35,10,105,00,42,00,000,00*7E
$GPGLL,3926.0569,N,11946.0014,W,181048,A,D*5E
$GPBOD,,T,,M,,*47
$PGRME,4.3,M,7.9,M,9.0,M*2E
$PGRMZ,4518,f,3*23
$GPRTE,1,1,c,*37

$GPRMC,181050,A,3926.0569,N,11946.0014,W,0.0,328.4,070106,15.2,E,D*30
$GPRMB,A,,,,,,,,,,,,A,D*0E
$GPGGA,181050,3926.0569,N,11946.0014,W,2,10,1.1,1377.0,M,-22.1,M,,*4B
$GPGSA,A,3,02,04,05,07,09,17,24,26,28,29,,,2.3,1.1,2.0*39
$GPGSV,3,1,12,02,26,181,42,04,49,142,41,05,15,297,36,07,64,040,47*71
$GPGSV,3,2,12,09,51,298,44,17,50,046,47,24,43,072,50,26,11,224,37*72
$GPGSV,3,3,12,28,25,096,38,29,06,216,33,35,10,105,00,42,00,000,00*7E
$GPGLL,3926.0569,N,11946.0014,W,181050,A,D*57
$GPBOD,,T,,M,,*47
$PGRME,4.3,M,7.8,M,8.9,M*27
$PGRMZ,4518,f,3*23
$GPRTE,1,1,c,*37

$GPRMC,181052,A,3926.0569,N,11946.0014,W,0.0,328.4,070106,15.2,E,D*32
$GPRMB,A,,,,,,,,,,,,A,D*0E
$GPGGA,181052,3926.0569,N,11946.0014,W,2,10,1.1,1377.5,M,-22.1,M,,*4C
$GPGSA,A,3,02,04,05,07,09,17,24,26,28,29,,,2.4,1.1,2.1*3F
$GPGSV,3,1,12,02,26,181,42,04,49,142,40,05,15,297,36,07,64,040,47*70
$GPGSV,3,2,12,09,51,298,44,17,50,046,47,24,43,072,49,26,11,224,37*7A
$GPGSV,3,3,12,28,25,096,38,29,06,216,32,35,10,105,00,42,00,000,00*7F
$GPGLL,3926.0569,N,11946.0014,W,181052,A,D*55
$GPBOD,,T,,M,,*47
$PGRME,4.3,M,7.5,M,8.6,M*25
$PGRMZ,4519,f,3*22
$GPRTE,1,1,c,*37

$GPRMC,181054,A,3926.0569,N,11946.0014,W,0.0,328.4,070106,15.2,E,D*34
$GPRMB,A,,,,,,,,,,,,A,D*0E
$GPGGA,181054,3926.0569,N,11946.0014,W,2,10,1.0,1377.6,M,-22.1,M,,*48
$GPGSA,A,3,02,04,05,07,09,17,24,26,28,29,,,2.0,1.0,1.7*3F
$GPGSV,3,1,12,02,26,181,42,04,49,142,41,05,15,297,36,07,64,040,47*71
$GPGSV,3,2,12,09,51,298,44,17,50,046,47,24,43,072,49,26,11,224,37*7A
$GPGSV,3,3,12,28,25,096,39,29,06,216,34,35,10,105,00,42,00,000,00*78
$GPGLL,3926.0569,N,11946.0014,W,181054,A,D*53
$GPBOD,,T,,M,,*47
$PGRME,4.3,M,7.5,M,8.6,M*25
$PGRMZ,4520,f,3*28
$GPRTE,1,1,c,*37

$GPRMC,181056,A,3926.0569,N,11946.0013,W,0.0,328.4,070106,15.2,E,A*34
$GPRMB,A,,,,,,,,,,,,A,A*0B
$GPGGA,181056,3926.0569,N,11946.0013,W,1,10,1.0,1377.7,M,-22.1,M,,*4F
$GPGSA,A,3,02,04,05,07,09,17,24,26,28,29,,,1.9,1.0,1.7*35
$GPGSV,3,1,12,02,26,181,43,04,49,142,42,05,15,297,36,07,64,040,47*73
$GPGSV,3,2,12,09,51,298,44,17,50,046,47,24,43,072,49,26,11,224,37*7A
$GPGSV,3,3,12,28,25,096,39,29,06,216,35,35,10,105,00,42,00,000,00*79
$GPGLL,3926.0569,N,11946.0013,W,181056,A,A*53
$GPBOD,,T,,M,,*47
$PGRME,4.3,M,7.5,M,8.6,M*25
$PGRMZ,4520,f,3*28
$GPRTE,1,1,c,*37

$GPRMC,181058,A,3926.0569,N,11946.0013,W,0.0,328.4,070106,15.2,E,A*3A
$GPRMB,A,,,,,,,,,,,,A,A*0B
$GPGGA,181058,3926.0569,N,11946.0013,W,1,10,1.0,1377.4,M,-22.1,M,,*42
$GPGSA,A,3,02,04,05,07,09,17,24,26,28,29,,,2.0,1.0,1.7*3F
$GPGSV,3,1,12,02,26,181,42,04,49,142,42,05,15,297,36,07,64,040,47*72
$GPGSV,3,2,12,09,51,298,45,17,50,046,47,24,43,072,50,26,11,224,37*73
$GPGSV,3,3,12,28,25,096,40,29,06,216,36,35,10,105,00,42,00,000,00*74
$GPGLL,3926.0569,N,11946.0013,W,181058,A,A*5D
$GPBOD,,T,,M,,*47
$PGRME,4.3,M,7.5,M,8.6,M*25
$PGRMZ,4519,f,3*22
$GPRTE,1,1,c,*37

$GPRMC,181100,A,3926.0568,N,11946.0013,W,0.0,328.4,070106,15.2,E,A*37
$GPRMB,A,,,,,,,,,,,,A,A*0B
$GPGGA,181100,3926.0568,N,11946.0013,W,1,10,1.0,1377.2,M,-22.1,M,,*49
$GPGSA,A,3,02,04,05,07,09,17,24,26,28,29,,,2.1,1.0,1.9*30
$GPGSV,3,1,12,02,26,181,43,04,49,142,42,05,15,297,36,07,64,040,47*73
$GPGSV,3,2,12,09,51,298,45,17,50,046,48,24,43,072,50,26,11,224,37*7C
$GPGSV,3,3,12,28,25,096,40,29,06,216,36,35,10,105,00,42,00,000,00*74
$GPGLL,3926.0568,N,11946.0013,W,181100,A,A*50
$GPBOD,,T,,M,,*47
$PGRME,4.3,M,7.5,M,8.6,M*25
$PGRMZ,4518,f,3*23
$GPRTE,1,1,c,*37

$GPRMC,181102,A,3926.0568,N,11946.0013,W,0.0,328.4,070106,15.2,E,A*35
$GPRMB,A,,,,,,,,,,,,A,A*0B
$GPGGA,181102,3926.0568,N,11946.0013,W,1,10,1.0,1377.2,M,-22.1,M,,*4B
$GPGSA,A,3,02,04,05,07,09,17,24,26,28,29,,,1.9,1.0,1.7*35
$GPGSV,3,1,12,02,26,181,43,04,49,142,43,05,15,297,35,07,64,040,47*71
$GPGSV,3,2,12,09,51,298,45,17,50,046,48,24,43,072,50,26,11,224,37*7C
$GPGSV,3,3,12,28,25,096,40,29,06,216,37,35,10,105,00,42,00,000,00*75
$GPGLL,3926.0568,N,11946.0013,W,181102,A,A*52
$GPBOD,,T,,M,,*47
$PGRME,4.3,M,7.5,M,8.6,M*25
$PGRMZ,4518,f,3*23
$GPRTE,1,1,c,*37

$GPRMC,181104,A,3926.0568,N,11946.0013,W,0.0,328.4,070106,15.2,E,A*33
$GPRMB,A,,,,,,,,,,,,A,A*0B
$GPGGA,181104,3926.0568,N,11946.0013,W,1,10,1.0,1377.3,M,-22.1,M,,*4C
$GPGSA,A,3,02,04,05,07,09,17,24,26,28,29,,,2.0,1.0,1.7*3F
$GPGSV,3,1,12,02,26,181,44,04,49,142,43,05,15,297,35,07,64,040,47*76
$GPGSV,3,2,12,09,51,298,45,17,50,046,48,24,43,072,50,26,11,224,37*7C
$GPGSV,3,3,12,28,25,096,40,29,06,216,37,35,10,105,00,42,00,000,00*75
$GPGLL,3926.0568,N,11946.0013,W,181104,A,A*54
$GPBOD,,T,,M,,*47
$PGRME,4.3,M,7.5,M,8.6,M*25
$PGRMZ,4519,f,3*22
$GPRTE,1,1,c,*37

$GPRMC,181106,A,3926.0568,N,11946.0013,W,0.0,328.4,070106,15.2,E,A*31
$GPRMB,A,,,,,,,,,,,,A,A*0B
$GPGGA,181106,3926.0568,N,11946.0013,W,1,10,1.0,1377.8,M,-22.1,M,,*45
$GPGSA,A,3,02,04,05,07,09,17,24,26,28,29,,,2.0,1.0,1.7*3F
$GPGSV,3,1,12,02,26,181,44,04,49,142,42,05,15,297,00,07,64,040,46*70
$GPGSV,3,2,12,09,51,298,45,17,50,046,47,24,43,072,49,26,11,224,37*7B
$GPGSV,3,3,12,28,25,096,39,29,06,216,38,35,10,105,00,42,00,000,00*74
$GPGLL,3926.0568,N,11946.0013,W,181106,A,A*56
$GPBOD,,T,,M,,*47
$PGRME,4.4,M,7.8,M,9.0,M*28
$PGRMZ,4520,f,3*28
$GPRTE,1,1,c,*37

$GPRMC,181108,A,3926.0568,N,11946.0013,W,0.0,328.4,070106,15.2,E,A*3F
$GPRMB,A,,,,,,,,,,,,A,A*0B
$GPGGA,181108,3926.0568,N,11946.0013,W,1,10,1.0,1378.3,M,-22.1,M,,*4F
$GPGSA,A,3,02,04,05,07,09,17,24,26,28,29,,,1.9,1.0,1.7*35
$GPGSV,3,1,12,02,26,181,44,04,49,142,42,05,15,297,35,07,64,040,46*76
$GPGSV,3,2,12,09,51,298,45,17,50,046,47,24,43,072,49,26,11,224,37*7B
$GPGSV,3,3,12,28,25,096,39,29,06,216,38,35,10,105,00,42,00,000,00*74
$GPGLL,3926.0568,N,11946.0013,W,181108,A,A*58
$GPBOD,,T,,M,,*47
$PGRME,4.3,M,7.5,M,8.6,M*25
$PGRMZ,4522,f,3*2A
$GPRTE,1,1,c,*37

$GPRMC,181110,A,3926.0568,N,11946.0014,W,0.0,328.4,070106,15.2,E,A*31
$GPRMB,A,,,,,,,,,,,,A,A*0B
$GPGGA,181110,3926.0568,N,11946.0014,W,1,10,1.0,1378.4,M,-22.1,M,,*46
$GPGSA,A,3,02,04,05,07,09,17,24,26,28,29,,,2.0,1.0,1.7*3F
$GPGSV,3,1,12,02,26,181,44,04,49,142,42,05,15,297,35,07,64,040,46*76
$GPGSV,3,2,12,09,51,298,45,17,50,046,47,24,43,072,49,26,11,224,37*7B
$GPGSV,3,3,12,28,25,096,38,29,06,216,38,35,10,105,00,42,00,000,00*75
$GPGLL,3926.0568,N,11946.0014,W,181110,A,A*56
$GPBOD,,T,,M,,*47
$PGRME,4.3,M,7.5,M,8.6,M*25
$PGRMZ,4522,f,3*2A
$GPRTE,1,1,c,*37

$GPRMC,181112,A,3926.0568,N,11946.0014,W,0.3,328.4,070106,15.2,E,A*30
$GPRMB,A,,,,,,,,,,,,A,A*0B
$GPGGA,181112,3926.0568,N,11946.0014,W,1,10,1.1,1377.7,M,-22.1,M,,*49
$GPGSA,A,3,02,04,05,07,09,17,24,26,28,29,,,2.1,1.1,1.8*30
$GPGSV,3,1,12,02,26,181,44,04,49,142,46,05,15,297,37,07,64,040,46*70
$GPGSV,3,2,12,09,51,298,47,17,50,046,48,24,43,072,46,26,11,224,38*76
$GPGSV,3,3,12,28,25,096,38,29,06,216,40,35,10,105,00,42,00,000,00*7A
$GPGLL,3926.0568,N,11946.0014,W,181112,A,A*54
$GPBOD,,T,,M,,*47
$PGRME,4.4,M,7.7,M,8.9,M*2F
$PGRMZ,4520,f,3*28
$GPRTE,1,1,c,*37

$GPRMC,181114,A,3926.0566,N,11946.0013,W,0.0,328.4,070106,15.2,E,A*3C
$GPRMB,A,,,,,,,,,,,,A,A*0B
$GPGGA,181114,3926.0566,N,11946.0013,W,1,10,1.0,1378.0,M,-22.1,M,,*4F
$GPGSA,A,3,02,04,05,07,09,17,24,26,28,29,,,2.0,1.0,1.7*3F
$GPGSV,3,1,12,02,26,181,45,04,49,142,48,05,15,297,38,07,64,040,49*7F
$GPGSV,3,2,12,09,51,298,48,17,50,046,46,24,43,072,48,26,11,224,41*77
$GPGSV,3,3,12,28,25,096,43,29,06,216,41,35,10,105,40,42,00,000,00*73
$GPGLL,3926.0566,N,11946.0013,W,181114,A,A*5B
$GPBOD,,T,,M,,*47
$PGRME,4.3,M,7.5,M,8.6,M*25
$PGRMZ,4521,f,3*29
$GPRTE,1,1,c,*37

$GPRMC,181116,A,3926.0565,N,11946.0013,W,0.0,328.4,070106,15.2,E,A*3D
$GPRMB,A,,,,,,,,,,,,A,A*0B
$GPGGA,181116,3926.0565,N,11946.0013,W,1,10,1.0,1378.2,M,-22.1,M,,*4C
$GPGSA,A,3,02,04,05,07,09,17,24,26,28,29,,,1.9,1.0,1.7*35
$GPGSV,3,1,12,02,26,181,45,04,49,142,49,05,15,297,39,07,64,040,50*77
$GPGSV,3,2,12,09,51,298,48,17,50,046,44,24,43,071,48,26,11,224,42*75
$GPGSV,3,3,12,28,25,096,45,29,06,216,42,35,10,105,40,42,00,000,00*76
$GPGLL,3926.0565,N,11946.0013,W,181116,A,A*5A
$GPBOD,,T,,M,,*47
$PGRME,4.3,M,7.5,M,8.6,M*25
$PGRMZ,4522,f,3*2A
$GPRTE,1,1,c,*37

$GPRMC,181118,A,3926.0565,N,11946.0013,W,0.0,328.4,070106,15.2,E,A*33
$GPRMB,A,,,,,,,,,,,,A,A*0B
$GPGGA,181118,3926.0565,N,11946.0013,W,1,10,1.0,1378.5,M,-22.1,M,,*45
$GPGSA,A,3,02,04,05,07,09,17,24,26,28,29,,,2.0,1.0,1.7*3F
$GPGSV,3,1,12,02,26,181,45,04,49,142,50,05,15,297,40,07,64,040,50*71
$GPGSV,3,2,12,09,51,298,49,17,50,046,42,24,43,071,49,26,11,224,43*72
$GPGSV,3,3,12,28,25,096,46,29,06,216,43,35,10,105,40,42,00,000,00*74
$GPGLL,3926.0565,N,11946.0013,W,181118,A,A*54
$GPBOD,,T,,M,,*47
$PGRME,4.3,M,7.5,M,8.6,M*25
$PGRMZ,4522,f,3*2A
$GPRTE,1,1,c,*37

$GPRMC,181120,A,3926.0564,N,11946.0014,W,0.0,328.4,070106,15.2,E,A*3E
$GPRMB,A,,,,,,,,,,,,A,A*0B
$GPGGA,181120,3926.0564,N,11946.0014,W,1,10,1.0,1378.4,M,-22.1,M,,*49
$GPGSA,A,3,02,04,05,07,09,17,24,26,28,29,,,2.0,1.0,1.7*3F
$GPGSV,3,1,12,02,26,181,46,04,49,142,50,05,15,297,40,07,64,040,50*72
$GPGSV,3,2,12,09,51,298,49,17,50,046,41,24,43,071,49,26,11,224,43*71
$GPGSV,3,3,12,28,25,096,46,29,06,216,43,35,10,105,41,42,00,000,00*75
$GPGLL,3926.0564,N,11946.0014,W,181120,A,A*59
$GPBOD,,T,,M,,*47
$PGRME,4.3,M,7.5,M,8.6,M*25
$PGRMZ,4522,f,3*2A
$GPRTE,1,1,c,*37

$GPRMC,181122,A,3926.0564,N,11946.0014,W,0.0,328.4,070106,15.2,E,A*3C
$GPRMB,A,,,,,,,,,,,,A,A*0B
$GPGGA,181122,3926.0564,N,11946.0014,W,1,10,1.0,1378.4,M,-22.1,M,,*4B
$GPGSA,A,3,02,04,05,07,09,17,24,26,28,29,,,2.0,1.0,1.7*3F
$GPGSV,3,1,12,02,26,181,46,04,49,142,51,05,15,297,40,07,64,040,50*73
$GPGSV,3,2,12,09,51,298,49,17,50,046,42,24,43,071,49,26,11,224,42*73
$GPGSV,3,3,12,28,25,096,46,29,06,216,44,35,10,105,40,42,00,000,00*73
$GPGLL,3926.0564,N,11946.0014,W,181122,A,A*5B
$GPBOD,,T,,M,,*47
$PGRME,4.3,M,7.5,M,8.6,M*25
$PGRMZ,4522,f,3*2A
$GPRTE,1,1,c,*37

$GPRMC,181124,A,3926.0564,N,11946.0013,W,0.0,328.4,070106,15.2,E,D*38
$GPRMB,A,,,,,,,,,,,,A,D*0E
$GPGGA,181124,3926.0564,N,11946.0013,W,2,10,1.0,1378.5,M,-22.1,M,,*48
$GPGSA,A,3,02,04,05,07,09,17,24,26,28,29,,,2.0,1.0,1.7*3F
$GPGSV,3,1,12,02,26,181,46,04,49,142,51,05,15,297,40,07,64,040,50*73
$GPGSV,3,2,12,09,51,298,49,17,50,046,42,24,43,071,49,26,11,224,42*73
$GPGSV,3,3,12,28,25,096,46,29,06,216,44,35,10,105,39,42,00,000,00*7D
$GPGLL,3926.0564,N,11946.0013,W,181124,A,D*5F
$GPBOD,,T,,M,,*47
$PGRME,4.2,M,7.5,M,8.6,M*24
$PGRMZ,4523,f,3*2B
$GPRTE,1,1,c,*37

$GPRMC,181126,A,3926.0564,N,11946.0013,W,0.0,328.4,070106,15.2,E,D*3A
$GPRMB,A,,,,,,,,,,,,A,D*0E
$GPGGA,181126,3926.0564,N,11946.0013,W,2,10,1.0,1378.9,M,-22.1,M,,*46
$GPGSA,A,3,02,04,05,07,09,17,24,26,28,29,,,2.0,1.0,1.7*3F
$GPGSV,3,1,12,02,26,181,46,04,49,142,51,05,15,297,40,07,64,040,50*73
$GPGSV,3,2,12,09,51,298,49,17,50,046,42,24,43,071,49,26,11,224,42*73
$GPGSV,3,3,12,28,25,096,46,29,06,216,45,35,10,105,40,42,00,000,00*72
$GPGLL,3926.0564,N,11946.0013,W,181126,A,D*5D
$GPBOD,,T,,M,,*47
$PGRME,4.2,M,7.5,M,8.6,M*24
$PGRMZ,4524,f,3*2C
$GPRTE,1,1,c,*37

$GPRMC,181128,A,3926.0565,N,11946.0013,W,0.0,328.4,070106,15.2,E,D*35
$GPRMB,A,,,,,,,,,,,,A,D*0E
$GPGGA,181128,3926.0565,N,11946.0013,W,2,10,1.0,1379.2,M,-22.1,M,,*43
$GPGSA,A,3,02,04,05,07,09,17,24,26,28,29,,,2.0,1.0,1.8*30
$GPGSV,3,1,12,02,26,181,47,04,49,142,51,05,15,297,39,07,64,040,50*7C
$GPGSV,3,2,12,09,51,298,49,17,50,046,41,24,43,071,49,26,11,224,43*71
$GPGSV,3,3,12,28,25,096,47,29,06,216,45,35,10,105,40,42,00,000,00*73
$GPGLL,3926.0565,N,11946.0013,W,181128,A,D*52
$GPBOD,,T,,M,,*47
$PGRME,4.2,M,7.8,M,8.9,M*26
$PGRMZ,4525,f,3*2D
$GPRTE,1,1,c,*37

$GPRMC,181130,A,3926.0565,N,11946.0013,W,0.0,328.4,070106,15.2,E,D*3C
$GPRMB,A,,,,,,,,,,,,A,D*0E
$GPGGA,181130,3926.0565,N,11946.0013,W,2,10,1.0,1379.1,M,-22.1,M,,*49
$GPGSA,A,3,02,04,05,07,09,17,24,26,28,29,,,2.0,1.0,1.8*30
$GPGSV,3,1,12,02,26,181,47,04,49,142,51,05,15,297,38,07,64,040,50*7D
$GPGSV,3,2,12,09,51,298,50,17,50,046,41,24,43,071,49,26,11,224,43*79
$GPGSV,3,3,12,28,24,097,47,29,06,216,45,35,10,105,39,42,00,000,00*7D
$GPGLL,3926.0565,N,11946.0013,W,181130,A,D*5B
$GPBOD,,T,,M,,*47
$PGRME,4.2,M,7.8,M,8.9,M*26
$PGRMZ,4525,f,3*2D
$GPRTE,1,1,c,*37

$GPRMC,181132,A,3926.0565,N,11946.0013,W,0.0,328.4,070106,15.2,E,D*3E
$GPRMB,A,,,,,,,,,,,,A,D*0E
$GPGGA,181132,3926.0565,N,11946.0013,W,2,10,1.0,1379.1,M,-22.1,M,,*4B
$GPGSA,A,3,02,04,05,07,09,17,24,26,28,29,,,2.0,1.0,1.8*30
$GPGSV,3,1,12,02,26,181,47,04,49,142,51,05,15,297,37,07,64,040,50*72
$GPGSV,3,2,12,09,51,298,50,17,50,046,42,24,43,071,49,26,11,224,43*7A
$GPGSV,3,3,12,28,24,097,47,29,06,216,45,35,10,105,39,42,00,000,00*7D
$GPGLL,3926.0565,N,11946.0013,W,181132,A,D*59
$GPBOD,,T,,M,,*47
$PGRME,4.2,M,7.8,M,8.9,M*26
$PGRMZ,4525,f,3*2D
$GPRTE,1,1,c,*37

$GPRMC,181134,A,3926.0566,N,11946.0014,W,0.0,328.4,070106,15.2,E,D*3C
$GPRMB,A,,,,,,,,,,,,A,D*0E
$GPGGA,181134,3926.0566,N,11946.0014,W,2,10,1.0,1379.2,M,-22.1,M,,*4A
$GPGSA,A,3,02,04,05,07,09,17,24,26,28,,35,,2.0,1.0,1.8*3D
$GPGSV,3,1,12,02,26,181,47,04,49,142,51,05,15,297,37,07,64,040,50*72
$GPGSV,3,2,12,09,51,298,50,17,50,046,42,24,43,071,49,26,11,224,44*7D
$GPGSV,3,3,12,28,24,097,47,29,05,215,44,35,10,105,39,43,00,000,00*7D
$GPGLL,3926.0566,N,11946.0014,W,181134,A,D*5B
$GPBOD,,T,,M,,*47
$PGRME,4.1,M,7.0,M,8.1,M*25
$PGRMZ,4525,f,3*2D
$GPRTE,1,1,c,*37

$GPRMC,181136,A,3926.0566,N,11946.0014,W,0.0,328.4,070106,15.2,E,D*3E
$GPRMB,A,,,,,,,,,,,,A,D*0E
$GPGGA,181136,3926.0566,N,11946.0014,W,2,10,0.9,1379.3,M,-22.1,M,,*41
$GPGSA,A,3,02,04,05,07,09,17,24,26,28,,35,,1.7,0.9,1.4*3D
$GPGSV,3,1,12,02,26,181,47,04,49,142,51,05,15,297,37,07,64,040,50*72
$GPGSV,3,2,12,09,51,298,50,17,50,046,42,24,43,071,49,26,11,224,44*7D
$GPGSV,3,3,12,28,24,097,47,29,05,215,44,35,10,105,40,43,00,000,00*73
$GPGLL,3926.0566,N,11946.0014,W,181136,A,D*59
$GPBOD,,T,,M,,*47
$PGRME,4.1,M,7.0,M,8.1,M*25
$PGRMZ,4525,f,3*2D
$GPRTE,1,1,c,*37

$GPRMC,181138,A,3926.0566,N,11946.0014,W,0.0,328.4,070106,15.2,E,D*30
$GPRMB,A,,,,,,,,,,,,A,D*0E
$GPGGA,181138,3926.0566,N,11946.0014,W,2,10,0.9,1379.3,M,-22.1,M,,*4F
$GPGSA,A,3,02,04,05,07,09,17,24,26,28,,35,,1.7,0.9,1.4*3D
$GPGSV,3,1,12,02,26,181,47,04,49,142,51,05,15,297,37,07,64,040,50*72
$GPGSV,3,2,12,09,51,298,50,17,50,046,41,24,43,071,49,26,11,224,44*7E
$GPGSV,3,3,12,28,24,097,47,29,05,215,43,35,10,105,39,43,00,000,00*7A
$GPGLL,3926.0566,N,11946.0014,W,181138,A,D*57
$GPBOD,,T,,M,,*47
$PGRME,4.1,M,7.0,M,8.1,M*25
$PGRMZ,4525,f,3*2D
$GPRTE,1,1,c,*37

$GPRMC,181140,A,3926.0567,N,11946.0014,W,0.0,328.4,070106,15.2,E,D*3E
$GPRMB,A,,,,,,,,,,,,A,D*0E
$GPGGA,181140,3926.0567,N,11946.0014,W,2,10,0.9,1379.3,M,-22.1,M,,*41
$GPGSA,A,3,02,04,05,07,09,17,24,26,28,,35,,1.7,0.9,1.4*3D
$GPGSV,3,1,12,02,26,181,47,04,49,142,50,05,15,297,38,07,64,040,50*7C
$GPGSV,3,2,12,09,51,298,50,17,50,046,41,24,43,071,49,26,11,224,45*7F
$GPGSV,3,3,12,28,24,097,46,29,05,215,43,35,10,105,39,43,00,000,00*7B
$GPGLL,3926.0567,N,11946.0014,W,181140,A,D*59
$GPBOD,,T,,M,,*47
$PGRME,4.1,M,7.0,M,8.1,M*25
$PGRMZ,4525,f,3*2D
$GPRTE,1,1,c,*37

$GPRMC,181142,A,3926.0567,N,11946.0014,W,0.0,328.4,070106,15.2,E,D*3C
$GPRMB,A,,,,,,,,,,,,A,D*0E
$GPGGA,181142,3926.0567,N,11946.0014,W,2,10,1.0,1379.1,M,-22.1,M,,*49
$GPGSA,A,3,02,04,05,07,09,17,24,26,28,,35,,1.8,1.0,1.5*3B
$GPGSV,3,1,12,02,26,181,47,04,49,142,50,05,15,297,37,07,64,040,50*73
$GPGSV,3,2,12,09,51,298,50,17,50,046,41,24,43,071,50,26,11,224,45*77
$GPGSV,3,3,12,28,24,097,46,29,05,215,44,35,10,105,39,43,00,000,00*7C
$GPGLL,3926.0567,N,11946.0014,W,181142,A,D*5B
$GPBOD,,T,,M,,*47
$PGRME,4.1,M,7.0,M,8.1,M*25
$PGRMZ,4525,f,3*2D
$GPRTE,1,1,c,*37

$GPRMC,181144,A,3926.0567,N,11946.0014,W,0.0,328.4,070106,15.2,E,D*3A
$GPRMB,A,,,,,,,,,,,,A,D*0E
$GPGGA,181144,3926.0567,N,11946.0014,W,2,10,1.0,1378.8,M,-22.1,M,,*47
$GPGSA,A,3,02,04,05,07,09,17,24,26,28,,35,,1.9,1.0,1.6*39
$GPGSV,3,1,12,02,26,181,47,04,49,142,50,05,15,297,37,07,64,040,50*73
$GPGSV,3,2,12,09,51,298,50,17,50,046,41,24,43,071,50,26,11,224,45*77
$GPGSV,3,3,12,28,24,097,46,29,05,215,44,35,10,105,39,43,00,000,00*7C
$GPGLL,3926.0567,N,11946.0014,W,181144,A,D*5D
$GPBOD,,T,,M,,*47
$PGRME,4.1,M,7.0,M,8.1,M*25
$PGRMZ,4524,f,3*2C
$GPRTE,1,1,c,*37

$GPRMC,181146,A,3926.0567,N,11946.0014,W,0.0,328.4,070106,15.2,E,D*38
$GPRMB,A,,,,,,,,,,,,A,D*0E
$GPGGA,181146,3926.0567,N,11946.0014,W,2,09,0.9,1378.5,M,-22.1,M,,*48
$GPGSA,A,3,02,04,05,07,09,17,24,26,28,,,,1.7,0.9,1.4*3B
$GPGSV,3,1,12,02,26,181,47,04,49,142,50,05,15,297,37,07,64,040,51*72
$GPGSV,3,2,12,09,51,298,50,17,50,046,40,24,43,071,50,26,11,224,45*76
$GPGSV,3,3,12,28,24,097,46,29,05,215,43,35,10,105,39,43,00,000,00*7B
$GPGLL,3926.0567,N,11946.0014,W,181146,A,D*5F
$GPBOD,,T,,M,,*47
$PGRME,4.1,M,7.1,M,8.2,M*27
$PGRMZ,4523,f,3*2B
$GPRTE,1,1,c,*37

$GPRMC,181148,A,3926.0567,N,11946.0014,W,0.0,328.4,070106,15.2,E,D*36
$GPRMB,A,,,,,,,,,,,,A,D*0E
$GPGGA,181148,3926.0567,N,11946.0014,W,2,09,0.9,1378.3,M,-22.1,M,,*40
$GPGSA,A,3,02,04,05,07,09,17,24,26,28,,,,1.8,0.9,1.5*35
$GPGSV,3,1,12,02,26,181,46,04,49,142,50,05,15,297,36,07,64,040,51*72
$GPGSV,3,2,12,09,51,298,50,17,50,046,40,24,43,071,50,26,11,224,45*76
$GPGSV,3,3,12,28,24,097,47,29,05,215,43,35,10,105,39,43,00,000,00*7A
$GPGLL,3926.0567,N,11946.0014,W,181148,A,D*51
$GPBOD,,T,,M,,*47
$PGRME,4.1,M,7.1,M,8.2,M*27
$PGRMZ,4522,f,3*2A
$GPRTE,1,1,c,*37

$GPRMC,181150,A,3926.0568,N,11946.0014,W,0.0,328.4,070106,15.2,E,D*30
$GPRMB,A,,,,,,,,,,,,A,D*0E
$GPGGA,181150,3926.0568,N,11946.0014,W,2,09,0.9,1378.2,M,-22.1,M,,*47
$GPGSA,A,3,02,04,05,07,09,17,24,26,28,,,,1.8,0.9,1.5*35
$GPGSV,3,1,12,02,26,181,46,04,49,142,50,05,15,297,36,07,64,040,51*72
$GPGSV,3,2,12,09,51,298,50,17,50,046,40,24,43,071,49,26,11,224,45*7E
$GPGSV,3,3,12,28,24,097,47,29,05,215,43,35,10,105,39,43,00,000,00*7A
$GPGLL,3926.0568,N,11946.0014,W,181150,A,D*57
$GPBOD,,T,,M,,*47
$PGRME,4.2,M,7.4,M,8.5,M*26
$PGRMZ,4522,f,3*2A
$GPRTE,1,1,c,*37

$GPRMC,181152,A,3926.0568,N,11946.0014,W,0.0,328.4,070106,15.2,E,D*32
$GPRMB,A,,,,,,,,,,,,A,D*0E
$GPGGA,181152,3926.0568,N,11946.0014,W,2,10,0.9,1378.1,M,-22.1,M,,*4E
$GPGSA,A,3,02,04,05,07,09,17,24,26,28,,35,,1.8,0.9,1.5*33
$GPGSV,3,1,12,02,26,181,46,04,49,142,50,05,15,297,35,07,64,040,51*71
$GPGSV,3,2,12,09,51,298,51,17,50,046,39,24,43,071,49,26,11,224,45*71
$GPGSV,3,3,12,28,24,097,47,29,05,215,43,35,10,105,39,43,00,000,00*7A
$GPGLL,3926.0568,N,11946.0014,W,181152,A,D*55
$GPBOD,,T,,M,,*47
$PGRME,4.1,M,7.0,M,8.1,M*25
$PGRMZ,4521,f,3*29
$GPRTE,1,1,c,*37

$GPRMC,181154,A,3926.0568,N,11946.0014,W,0.0,328.4,070106,15.2,E,D*34
$GPRMB,A,,,,,,,,,,,,A,D*0E
$GPGGA,181154,3926.0568,N,11946.0014,W,2,10,1.0,1377.9,M,-22.1,M,,*47
$GPGSA,A,3,02,04,05,07,09,17,24,26,28,,35,,1.8,1.0,1.5*3B
$GPGSV,3,1,12,02,27,179,46,04,49,142,50,05,15,297,35,07,64,040,51*77
$GPGSV,3,2,12,09,51,298,51,17,50,046,40,24,43,071,49,26,11,224,45*7F
$GPGSV,3,3,12,28,24,097,47,29,05,215,43,35,10,105,39,43,00,000,00*7A
$GPGLL,3926.0568,N,11946.0014,W,181154,A,D*53
$GPBOD,,T,,M,,*47
$PGRME,4.1,M,7.2,M,8.3,M*25
$PGRMZ,4521,f,3*29
$GPRTE,1,1,c,*37

$GPRMC,181156,A,3926.0568,N,11946.0014,W,0.0,328.4,070106,15.2,E,D*36
$GPRMB,A,,,,,,,,,,,,A,D*0E
$GPGGA,181156,3926.0568,N,11946.0014,W,2,10,1.0,1377.7,M,-22.1,M,,*4B
$GPGSA,A,3,02,04,05,07,09,17,24,26,28,,35,,1.8,1.0,1.5*3B
$GPGSV,3,1,12,02,27,179,46,04,49,142,50,05,15,297,35,07,64,040,51*77
$GPGSV,3,2,12,09,51,298,50,17,50,046,39,24,43,071,49,26,11,224,45*70
$GPGSV,3,3,12,28,24,097,47,29,05,215,43,35,10,105,38,43,00,000,00*7B
$GPGLL,3926.0568,N,11946.0014,W,181156,A,D*51
$GPBOD,,T,,M,,*47
$PGRME,4.1,M,7.0,M,8.1,M*25
$PGRMZ,4520,f,3*28
$GPRTE,1,1,c,*37

$GPRMC,181158,A,3926.0569,N,11946.0015,W,0.0,328.4,070106,15.2,E,D*38
$GPRMB,A,,,,,,,,,,,,A,D*0E
$GPGGA,181158,3926.0569,N,11946.0015,W,2,09,1.0,1377.5,M,-22.1,M,,*4F
$GPGSA,A,3,02,04,05,07,09,17,24,26,28,,,,1.9,1.0,1.6*3F
$GPGSV,3,1,12,02,27,179,46,04,49,142,50,05,15,297,35,07,64,040,51*77
$GPGSV,3,2,12,09,51,298,51,17,50,046,39,24,43,071,49,26,11,224,45*71
$GPGSV,3,3,12,28,24,097,47,29,05,215,43,35,10,105,38,43,00,000,00*7B
$GPGLL,3926.0569,N,11946.0015,W,181158,A,D*5F
$GPBOD,,T,,M,,*47
$PGRME,4.1,M,7.3,M,8.4,M*23
$PGRMZ,4519,f,3*22
$GPRTE,1,1,c,*37

$GPRMC,181200,A,3926.0569,N,11946.0015,W,0.0,328.4,070106,15.2,E,D*36
$GPRMB,A,,,,,,,,,,,,A,D*0E
$GPGGA,181200,3926.0569,N,11946.0015,W,2,09,1.1,1376.8,M,-22.1,M,,*4C
$GPGSA,A,3,02,04,05,07,09,17,24,26,28,,,,2.0,1.1,1.7*35
$GPGSV,3,1,12,02,27,179,46,04,50,141,50,05,15,297,35,07,64,040,51*7C
$GPGSV,3,2,12,09,51,298,51,17,50,046,39,24,43,071,49,26,11,224,45*71
$GPGSV,3,3,12,28,24,097,47,29,05,215,43,35,10,105,39,43,00,000,00*7A
$GPGLL,3926.0569,N,11946.0015,W,181200,A,D*51
$GPBOD,,T,,M,,*47
$PGRME,4.2,M,7.7,M,8.7,M*27
$PGRMZ,4517,f,3*2C
$GPRTE,1,1,c,*37

$GPRMC,181202,A,3926.0569,N,11946.0015,W,0.0,328.4,070106,15.2,E,D*34
$GPRMB,A,,,,,,,,,,,,A,D*0E
$GPGGA,181202,3926.0569,N,11946.0015,W,2,09,1.1,1376.6,M,-22.1,M,,*40
$GPGSA,A,3,02,04,05,07,09,17,24,26,28,,,,2.0,1.1,1.7*35
$GPGSV,3,1,12,02,27,179,46,04,50,141,50,05,15,297,34,07,64,040,52*7E
$GPGSV,3,2,12,09,51,298,51,17,50,046,39,24,43,071,49,26,11,224,44*70
$GPGSV,3,3,12,28,24,097,47,29,05,215,43,35,10,105,39,43,00,000,00*7A
$GPGLL,3926.0569,N,11946.0015,W,181202,A,D*53
$GPBOD,,T,,M,,*47
$PGRME,4.2,M,7.7,M,8.7,M*27
$PGRMZ,4516,f,3*2D
$GPRTE,1,1,c,*37

$GPRMC,181204,A,3926.0569,N,11946.0015,W,0.0,328.4,070106,15.2,E,D*32
$GPRMB,A,,,,,,,,,,,,A,D*0E
$GPGGA,181204,3926.0569,N,11946.0015,W,2,10,1.1,1375.9,M,-22.1,M,,*42
$GPGSA,A,3,02,04,05,07,09,17,24,26,28,,35,,2.0,1.1,1.7*33
$GPGSV,3,1,12,02,27,179,46,04,50,141,50,05,16,298,35,07,64,040,52*73
$GPGSV,3,2,12,09,51,298,51,17,50,046,39,24,43,071,49,26,11,224,44*70
$GPGSV,3,3,12,28,24,097,47,29,05,215,42,35,10,105,38,43,00,000,00*7A
$GPGLL,3926.0569,N,11946.0015,W,181204,A,D*55
$GPBOD,,T,,M,,*47
$PGRME,4.1,M,7.0,M,8.1,M*25
$PGRMZ,4514,f,3*2F
$GPRTE,1,1,c,*37

$GPRMC,181206,A,3926.0570,N,11946.0015,W,0.0,328.4,070106,15.2,E,D*38
$GPRMB,A,,,,,,,,,,,,A,D*0E
$GPGGA,181206,3926.0570,N,11946.0015,W,2,10,1.0,1375.8,M,-22.1,M,,*48
$GPGSA,A,3,02,04,05,07,09,17,24,26,28,,35,,2.0,1.0,1.8*3D
$GPGSV,3,1,12,02,27,179,46,04,50,141,50,05,16,298,35,07,64,040,51*70
$GPGSV,3,2,12,09,51,298,51,17,50,046,39,24,43,071,49,26,11,224,44*70
$GPGSV,3,3,12,28,24,097,46,29,05,215,42,35,10,105,39,43,00,000,00*7A
$GPGLL,3926.0570,N,11946.0015,W,181206,A,D*5F
$GPBOD,,T,,M,,*47
$PGRME,4.1,M,7.0,M,8.1,M*25
$PGRMZ,4514,f,3*2F
$GPRTE,1,1,c,*37

$GPRMC,181208,A,3926.0570,N,11946.0015,W,0.0,328.4,070106,15.2,E,D*36
$GPRMB,A,,,,,,,,,,,,A,D*0E
$GPGGA,181208,3926.0570,N,11946.0015,W,2,10,1.0,1375.5,M,-22.1,M,,*4B
$GPGSA,A,3,02,04,05,07,09,17,24,26,28,,35,,2.0,1.0,1.8*3D
$GPGSV,3,1,12,02,27,179,46,04,50,141,50,05,16,298,35,07,64,040,52*73
$GPGSV,3,2,12,09,51,298,51,17,50,046,39,24,43,071,50,26,11,224,44*78
$GPGSV,3,3,12,28,24,097,46,29,05,215,41,35,10,105,39,43,00,000,00*79
$GPGLL,3926.0570,N,11946.0015,W,181208,A,D*51
$GPBOD,,T,,M,,*47
$PGRME,4.1,M,7.0,M,8.1,M*25
$PGRMZ,4513,f,3*28
$GPRTE,1,1,c,*37

$GPRMC,181210,A,3926.0571,N,11946.0015,W,0.0,328.4,070106,15.2,E,D*3E
$GPRMB,A,,,,,,,,,,,,A,D*0E
$GPGGA,181210,3926.0571,N,11946.0015,W,2,09,1.0,1375.4,M,-22.1,M,,*4A
$GPGSA,A,3,02,04,05,07,09,17,24,26,28,,,,2.0,1.0,1.7*34
$GPGSV,3,1,12,02,27,179,46,04,50,141,50,05,16,298,36,07,64,040,52*70
$GPGSV,3,2,12,09,51,298,51,17,50,046,39,24,43,071,49,26,11,224,44*70
$GPGSV,3,3,12,28,24,097,46,29,05,215,41,35,10,105,39,43,00,000,00*79
$GPGLL,3926.0571,N,11946.0015,W,181210,A,D*59
$GPBOD,,T,,M,,*47
$PGRME,4.1,M,7.1,M,8.2,M*27
$PGRMZ,4512,f,3*29
$GPRTE,1,1,c,*37

$GPRMC,181212,A,3926.0571,N,11946.0015,W,0.0,328.4,070106,15.2,E,D*3C
$GPRMB,A,,,,,,,,,,,,A,D*0E
$GPGGA,181212,3926.0571,N,11946.0015,W,2,09,1.0,1375.2,M,-22.1,M,,*4E
$GPGSA,A,3,02,04,05,07,09,17,24,26,28,,,,2.0,1.0,1.8*3B
$GPGSV,3,1,12,02,27,179,46,04,50,141,50,05,16,298,35,07,64,041,52*72
$GPGSV,3,2,12,09,51,298,50,17,50,046,39,24,43,071,49,26,11,224,44*71
$GPGSV,3,3,12,28,24,097,46,29,05,215,40,35,10,105,39,43,00,000,00*78
$GPGLL,3926.0571,N,11946.0015,W,181212,A,D*5B
$GPBOD,,T,,M,,*47
$PGRME,4.2,M,7.4,M,8.5,M*26
$PGRMZ,4512,f,3*29
$GPRTE,1,1,c,*37

$GPRMC,181214,A,3926.0571,N,11946.0015,W,0.0,328.4,070106,15.2,E,D*3A
$GPRMB,A,,,,,,,,,,,,A,D*0E
$GPGGA,181214,3926.0571,N,11946.0015,W,2,09,1.0,1375.3,M,-22.1,M,,*49
$GPGSA,A,3,02,04,05,07,09,17,24,26,28,,,,2.1,1.0,1.8*3A
$GPGSV,3,1,12,02,27,179,46,04,50,141,50,05,16,298,35,07,64,041,52*72
$GPGSV,3,2,12,09,51,298,50,17,50,046,39,24,43,071,49,26,11,224,45*70
$GPGSV,3,3,12,28,24,097,46,29,05,215,40,35,10,105,39,43,00,000,00*78
$GPGLL,3926.0571,N,11946.0015,W,181214,A,D*5D
$GPBOD,,T,,M,,*47
$PGRME,4.2,M,7.4,M,8.5,M*26
$PGRMZ,4512,f,3*29
$GPRTE,1,1,c,*37

$GPRMC,181216,A,3926.0572,N,11946.0015,W,0.0,328.4,070106,15.2,E,D*3B
$GPRMB,A,,,,,,,,,,,,A,D*0E
$GPGGA,181216,3926.0572,N,11946.0015,W,2,10,1.1,1375.1,M,-22.1,M,,*43
$GPGSA,A,3,02,04,05,07,09,17,24,26,28,29,,,2.1,1.1,1.9*31
$GPGSV,3,1,12,02,27,179,46,04,50,141,50,05,16,298,35,07,64,041,52*72
$GPGSV,3,2,12,09,51,298,50,17,50,046,40,24,43,071,49,26,11,224,45*7E
$GPGSV,3,3,12,28,24,097,46,29,05,215,40,35,10,105,39,43,00,000,00*78
$GPGLL,3926.0572,N,11946.0015,W,181216,A,D*5C
$GPBOD,,T,,M,,*47
$PGRME,4.1,M,7.5,M,8.6,M*27
$PGRMZ,4512,f,3*29
$GPRTE,1,1,c,*37

$GPRMC,181218,A,3926.0572,N,11946.0015,W,0.0,328.4,070106,15.2,E,D*35
$GPRMB,A,,,,,,,,,,,,A,D*0E
$GPGGA,181218,3926.0572,N,11946.0015,W,2,10,1.1,1375.1,M,-22.1,M,,*4D
$GPGSA,A,3,02,04,05,07,09,17,24,26,28,29,,,2.2,1.1,1.9*32
$GPGSV,3,1,12,02,27,179,47,04,50,141,50,05,16,298,36,07,64,041,52*70
$GPGSV,3,2,12,09,51,298,50,17,50,046,39,24,43,071,50,26,11,224,45*78
$GPGSV,3,3,12,28,24,097,46,29,05,215,39,35,10,105,39,43,00,000,00*76
$GPGLL,3926.0572,N,11946.0015,W,181218,A,D*52
$GPBOD,,T,,M,,*47
$PGRME,4.1,M,7.5,M,8.6,M*27
$PGRMZ,4512,f,3*29
$GPRTE,1,1,c,*37

$GPRMC,181220,A,3926.0572,N,11946.0015,W,0.0,328.4,070106,15.2,E,D*3E
$GPRMB,A,,,,,,,,,,,,A,D*0E
$GPGGA,181220,3926.0572,N,11946.0015,W,2,10,1.1,1375.2,M,-22.1,M,,*45
$GPGSA,A,3,02,04,05,07,09,17,24,26,28,29,,,2.2,1.1,1.9*32
$GPGSV,3,1,12,02,27,179,47,04,50,141,50,05,16,298,37,07,64,041,52*71
$GPGSV,3,2,12,09,51,296,50,17,50,046,41,24,43,071,49,26,11,224,45*71
$GPGSV,3,3,12,28,24,097,46,29,05,215,40,35,10,105,39,43,00,000,00*78
$GPGLL,3926.0572,N,11946.0015,W,181220,A,D*59
$GPBOD,,T,,M,,*47
$PGRME,4.1,M,7.5,M,8.6,M*27
$PGRMZ,4512,f,3*29
$GPRTE,1,1,c,*37

$GPRMC,181222,A,3926.0573,N,11946.0015,W,0.0,328.4,070106,15.2,E,D*3D
$GPRMB,A,,,,,,,,,,,,A,D*0E
$GPGGA,181222,3926.0573,N,11946.0015,W,2,10,1.0,1375.1,M,-22.1,M,,*44
$GPGSA,A,3,02,04,05,07,09,17,24,26,28,29,,,1.9,1.0,1.6*34
$GPGSV,3,1,12,02,27,179,47,04,50,141,50,05,16,298,37,07,64,041,52*71
$GPGSV,3,2,12,09,51,296,50,17,50,046,40,24,43,071,49,26,11,224,45*70
$GPGSV,3,3,12,28,24,097,46,29,05,215,41,35,10,105,39,43,00,000,00*79
$GPGLL,3926.0573,N,11946.0015,W,181222,A,D*5A
$GPBOD,,T,,M,,*47
$PGRME,4.1,M,7.5,M,8.6,M*27
$PGRMZ,4512,f,3*29
$GPRTE,1,1,c,*37

$GPRMC,181224,A,3926.0573,N,11946.0015,W,0.0,328.4,070106,15.2,E,D*3B
$GPRMB,A,,,,,,,,,,,,A,D*0E
$GPGGA,181224,3926.0573,N,11946.0015,W,2,10,1.0,1375.1,M,-22.1,M,,*42
$GPGSA,A,3,02,04,05,07,09,17,24,26,28,29,,,1.9,1.0,1.6*34
$GPGSV,3,1,12,02,27,179,47,04,50,141,50,05,16,298,38,07,64,041,52*7E
$GPGSV,3,2,12,09,51,296,50,17,50,046,39,24,43,071,48,26,11,224,45*7F
$GPGSV,3,3,12,28,24,097,45,29,05,215,41,35,10,105,39,43,00,000,00*7A
$GPGLL,3926.0573,N,11946.0015,W,181224,A,D*5C
$GPBOD,,T,,M,,*47
$PGRME,4.1,M,7.5,M,8.6,M*27
$PGRMZ,4511,f,3*2A
$GPRTE,1,1,c,*37

$GPRMC,181226,A,3926.0573,N,11946.0016,W,0.0,328.4,070106,15.2,E,D*3A
$GPRMB,A,,,,,,,,,,,,A,D*0E
$GPGGA,181226,3926.0573,N,11946.0016,W,2,10,1.0,1375.3,M,-22.1,M,,*41
$GPGSA,A,3,02,04,05,07,09,17,24,26,28,29,,,1.9,1.0,1.7*35
$GPGSV,3,1,12,02,27,179,47,04,50,141,50,05,16,298,37,07,64,041,52*71
$GPGSV,3,2,12,09,51,296,50,17,50,046,38,24,43,071,48,26,11,224,45*7E
$GPGSV,3,3,12,28,24,097,45,29,05,215,42,35,10,105,39,43,00,000,00*79
$GPGLL,3926.0573,N,11946.0016,W,181226,A,D*5D
$GPBOD,,T,,M,,*47
$PGRME,4.1,M,7.5,M,8.6,M*27
$PGRMZ,4512,f,3*29
$GPRTE,1,1,c,*37

$GPRMC,181228,A,3926.0574,N,11946.0016,W,0.0,328.4,070106,15.2,E,D*33
$GPRMB,A,,,,,,,,,,,,A,D*0E
$GPGGA,181228,3926.0574,N,11946.0016,W,2,10,1.0,1375.7,M,-22.1,M,,*4C
$GPGSA,A,3,02,04,05,07,09,17,24,26,28,29,,,1.9,1.0,1.6*34
$GPGSV,3,1,12,02,27,179,47,04,50,141,49,05,16,298,39,07,64,041,52*77
$GPGSV,3,2,12,09,51,296,50,17,50,046,37,24,43,071,48,26,11,224,45*71
$GPGSV,3,3,12,28,24,097,45,29,05,215,42,35,10,105,40,43,00,000,00*77
$GPGLL,3926.0574,N,11946.0016,W,181228,A,D*54
$GPBOD,,T,,M,,*47
$PGRME,3.8,M,6.3,M,7.4,M*23
$PGRMZ,4513,f,3*28
$GPRTE,1,1,c,*37

$GPRMC,181230,A,3926.0574,N,11946.0016,W,0.4,153.1,070106,15.2,E,D*35
$GPRMB,A,,,,,,,,,,,,A,D*0E
$GPGGA,181230,3926.0574,N,11946.0016,W,2,10,1.0,1376.0,M,-22.1,M,,*41
$GPGSA,A,3,02,04,05,07,09,17,24,26,28,29,,,2.0,1.0,1.7*3F
$GPGSV,3,1,12,02,27,179,47,04,50,141,50,05,16,298,38,07,64,041,52*7E
$GPGSV,3,2,12,09,51,296,50,17,50,046,36,24,43,071,48,26,11,224,45*70
$GPGSV,3,3,12,28,24,097,45,29,05,215,42,35,10,105,40,43,00,000,00*77
$GPGLL,3926.0574,N,11946.0016,W,181230,A,D*5D
$GPBOD,,T,,M,,*47
$PGRME,4.0,M,6.7,M,7.8,M*24
$PGRMZ,4514,f,3*2F
$GPRTE,1,1,c,*37

$GPRMC,181232,A,3926.0561,N,11946.0000,W,5.8,146.4,070106,15.2,E,D*3C
$GPRMB,A,,,,,,,,,,,,A,D*0E
$GPGGA,181232,3926.0561,N,11946.0000,W,2,10,1.0,1376.1,M,-22.1,M,,*41
$GPGSA,A,3,02,04,05,07,09,17,24,26,28,29,,,2.0,1.0,1.7*3F
$GPGSV,3,1,12,02,27,179,45,04,50,141,50,05,16,298,37,07,64,041,51*70
$GPGSV,3,2,12,09,51,296,49,17,50,046,39,24,43,071,48,26,11,224,44*76
$GPGSV,3,3,12,28,24,097,44,29,05,215,41,35,10,105,40,44,00,000,00*72
$GPGLL,3926.0561,N,11946.0000,W,181232,A,D*5C
$GPBOD,,T,,M,,*47
$PGRME,3.9,M,6.7,M,7.8,M*2A
$PGRMZ,4515,f,3*2E
$GPRTE,1,1,c,*37

$GPRMC,181234,A,3926.0514,N,11945.9958,W,11.7,145.0,070106,15.2,E,D*0B
$GPRMB,A,,,,,,,,,,,,A,D*0E
$GPGGA,181234,3926.0514,N,11945.9958,W,2,10,1.1,1376.1,M,-22.1,M,,*4A
$GPGSA,A,3,02,04,05,07,09,17,24,26,28,29,,,2.2,1.1,1.9*32
$GPGSV,3,1,12,02,27,179,46,04,50,141,50,05,16,298,36,07,64,041,51*72
$GPGSV,3,2,12,09,51,296,49,17,50,046,39,24,43,071,48,26,11,224,42*70
$GPGSV,3,3,12,28,24,097,46,29,05,215,42,35,10,105,39,44,00,000,00*7D
$GPGLL,3926.0514,N,11945.9958,W,181234,A,D*56
$GPBOD,,T,,M,,*47
$PGRME,4.1,M,7.3,M,8.4,M*23
$PGRMZ,4515,f,3*2E
$GPRTE,1,1,c,*37

$GPRMC,181236,A,3926.0448,N,11945.9902,W,14.5,147.8,070106,15.2,E,D*03
$GPRMB,A,,,,,,,,,,,,A,D*0E
$GPGGA,181236,3926.0448,N,11945.9902,W,2,10,1.2,1376.1,M,-22.1,M,,*4C
$GPGSA,A,3,02,04,05,07,09,17,24,26,28,29,,,2.3,1.2,2.0*3A
$GPGSV,3,1,12,02,27,179,45,04,50,141,51,05,16,298,00,07,64,041,51*75
$GPGSV,3,2,12,09,51,296,49,17,50,046,39,24,43,071,49,26,11,224,42*71
$GPGSV,3,3,12,28,24,097,46,29,05,215,42,35,10,105,38,44,00,000,00*7C
$GPGLL,3926.0448,N,11945.9902,W,181236,A,D*53
$GPBOD,,T,,M,,*47
$PGRME,4.2,M,7.8,M,8.9,M*26
$PGRMZ,4515,f,3*2E
$GPRTE,1,1,c,*37

$GPRMC,181238,A,3926.0368,N,11945.9843,W,17.3,151.0,070106,15.2,E,D*06
$GPRMB,A,,,,,,,,,,,,A,D*0E
$GPGGA,181238,3926.0368,N,11945.9843,W,2,10,1.2,1375.9,M,-22.1,M,,*48
$GPGSA,A,3,02,04,05,07,09,17,24,26,28,29,,,2.3,1.2,1.9*30
$GPGSV,3,1,12,02,27,179,45,04,50,141,51,05,16,298,38,07,64,041,51*7E
$GPGSV,3,2,12,09,51,296,49,17,50,046,38,24,43,071,48,26,11,224,43*70
$GPGSV,3,3,12,28,24,097,45,29,05,215,42,35,10,105,37,44,00,000,00*70
$GPGLL,3926.0368,N,11945.9843,W,181238,A,D*5C
$GPBOD,,T,,M,,*47
$PGRME,2.4,M,5.0,M,5.6,M*2E
$PGRMZ,4514,f,3*2F
$GPRTE,1,1,c,*37

$GPRMC,181240,A,3926.0270,N,11945.9782,W,19.9,154.5,070106,15.2,E,D*07
$GPRMB,A,,,,,,,,,,,,A,D*0E
$GPGGA,181240,3926.0270,N,11945.9782,W,2,10,1.2,1375.7,M,-22.1,M,,*43
$GPGSA,A,3,02,04,05,07,09,17,24,26,28,29,,,2.4,1.2,2.0*3D
$GPGSV,3,1,12,02,27,179,44,04,50,141,50,05,16,298,36,07,64,041,52*73
$GPGSV,3,2,12,09,51,296,49,17,50,046,40,24,43,071,48,26,11,224,43*7F
$GPGSV,3,3,12,28,24,097,45,29,05,215,41,35,10,105,36,44,00,000,00*72
$GPGLL,3926.0270,N,11945.9782,W,181240,A,D*59
$GPBOD,,T,,M,,*47
$PGRME,2.3,M,4.9,M,5.4,M*23
$PGRMZ,4513,f,3*28
$GPRTE,1,1,c,*37

$GPRMC,181242,A,3926.0162,N,11945.9715,W,22.1,153.5,070106,15.2,E,D*0C
$GPRMB,A,,,,,,,,,,,,A,D*0E
$GPGGA,181242,3926.0162,N,11945.9715,W,2,10,1.1,1375.6,M,-22.1,M,,*4D
$GPGSA,A,3,02,04,05,07,09,17,24,26,28,29,,,2.1,1.1,1.8*30
$GPGSV,3,1,12,02,27,179,45,04,50,141,50,05,16,298,37,07,64,041,51*70
$GPGSV,3,2,12,09,51,296,49,17,50,046,39,24,43,071,48,26,11,224,43*71
$GPGSV,3,3,12,28,24,097,45,29,05,215,34,35,10,105,38,44,00,000,00*7E
$GPGLL,3926.0162,N,11945.9715,W,181242,A,D*55
$GPBOD,,T,,M,,*47
$PGRME,2.3,M,4.8,M,5.3,M*25
$PGRMZ,4513,f,3*28
$GPRTE,1,1,c,*37

$GPRMC,181244,A,3926.0046,N,11945.9639,W,23.6,153.0,070106,15.2,E,D*01
$GPRMB,A,,,,,,,,,,,,A,D*0E
$GPGGA,181244,3926.0046,N,11945.9639,W,2,10,1.0,1375.1,M,-22.1,M,,*45
$GPGSA,A,3,02,04,05,07,09,17,24,26,28,29,,,2.0,1.0,1.7*3F
$GPGSV,3,1,12,02,27,179,46,04,50,141,50,05,16,298,38,07,64,041,51*7C
$GPGSV,3,2,12,09,51,296,49,17,50,046,39,24,43,071,47,26,11,224,43*7E
$GPGSV,3,3,12,28,24,097,44,29,05,215,33,35,10,105,38,44,00,000,00*78
$GPGLL,3926.0046,N,11945.9639,W,181244,A,D*5B
$GPBOD,,T,,M,,*47
$PGRME,2.3,M,4.8,M,5.3,M*25
$PGRMZ,4511,f,3*2A
$GPRTE,1,1,c,*37

$GPRMC,181246,A,3925.9918,N,11945.9553,W,27.0,152.4,070106,15.2,E,D*03
$GPRMB,A,,,,,,,,,,,,A,D*0E
$GPGGA,181246,3925.9918,N,11945.9553,W,2,10,1.4,1374.5,M,-22.1,M,,*41
$GPGSA,A,3,02,04,05,07,09,17,24,26,28,29,,,2.4,1.4,1.0*38
$GPGSV,3,1,12,02,27,179,46,04,50,141,50,05,16,298,39,07,64,041,51*7D
$GPGSV,3,2,12,09,51,296,50,17,50,046,39,24,43,071,47,26,11,224,44*71
$GPGSV,3,3,12,28,24,097,43,29,05,215,39,35,10,105,38,44,00,000,00*75
$GPGLL,3925.9918,N,11945.9553,W,181246,A,D*5E
$GPBOD,,T,,M,,*47
$PGRME,3.2,M,4.9,M,6.1,M*25
$PGRMZ,4510,f,3*2B
$GPRTE,1,1,c,*37

$GPRMC,181248,A,3925.9774,N,11945.9458,W,30.2,153.2,070106,15.2,E,D*00
$GPRMB,A,,,,,,,,,,,,A,D*0E
$GPGGA,181248,3925.9774,N,11945.9458,W,2,10,2.1,1374.3,M,-22.1,M,,*41
$GPGSA,A,3,02,04,05,07,09,17,24,26,28,29,,,2.9,2.1,1.0*33
$GPGSV,3,1,12,02,27,179,46,04,50,141,50,05,16,298,39,07,64,041,51*7D
$GPGSV,3,2,12,09,51,296,50,17,50,046,39,24,43,071,47,26,11,224,43*76
$GPGSV,3,3,12,28,24,097,44,29,05,215,40,35,10,105,37,44,00,000,00*73
$GPGLL,3925.9774,N,11945.9458,W,181248,A,D*5E
$GPBOD,,T,,M,,*47
$PGRME,3.2,M,4.9,M,6.1,M*25
$PGRMZ,4509,f,3*23
$GPRTE,1,1,c,*37

$GPRMC,181250,A,3925.9615,N,11945.9355,W,32.7,153.5,070106,15.2,E,D*05
$GPRMB,A,,,,,,,,,,,,A,D*0E
$GPGGA,181250,3925.9615,N,11945.9355,W,2,10,1.0,1373.9,M,-22.1,M,,*4B
$GPGSA,A,3,02,04,05,07,09,17,24,26,28,29,,,2.1,1.0,1.1*38
$GPGSV,3,1,12,02,27,179,46,04,50,141,50,05,16,298,39,07,64,041,51*7D
$GPGSV,3,2,12,09,51,296,49,17,49,046,39,24,43,071,47,26,11,224,43*76
$GPGSV,3,3,12,28,24,097,44,29,05,215,40,35,10,105,39,44,00,000,00*7D
$GPGLL,3925.9615,N,11945.9355,W,181250,A,D*5B
$GPBOD,,T,,M,,*47
$PGRME,4.0,M,4.9,M,6.6,M*27
$PGRMZ,4508,f,3*22
$GPRTE,1,1,c,*37

$GPRMC,181252,A,3925.9454,N,11945.9250,W,32.2,153.1,070106,15.2,E,D*05
$GPRMB,A,,,,,,,,,,,,A,D*0E
$GPGGA,181252,3925.9454,N,11945.9250,W,2,10,1.1,1373.3,M,-22.1,M,,*41
$GPGSA,A,3,02,04,05,07,09,17,24,26,28,29,,,2.1,1.1,1.2*3A
$GPGSV,3,1,12,02,27,179,46,04,50,141,50,05,16,298,39,07,64,041,51*7D
$GPGSV,3,2,12,09,51,296,49,17,49,046,38,24,43,071,47,26,11,224,42*76
$GPGSV,3,3,12,28,24,097,44,29,05,215,38,35,10,105,38,44,00,000,00*73
$GPGLL,3925.9454,N,11945.9250,W,181252,A,D*5A
$GPBOD,,T,,M,,*47
$PGRME,2.8,M,4.9,M,5.8,M*24
$PGRMZ,4506,f,3*2C
$GPRTE,1,1,c,*37

$GPRMC,181254,A,3925.9293,N,11945.9145,W,32.6,153.3,070106,15.2,E,D*0F
$GPRMB,A,,,,,,,,,,,,A,D*0E
$GPGGA,181254,3925.9293,N,11945.9145,W,2,10,1.1,1372.8,M,-22.1,M,,*47
$GPGSA,A,3,02,04,05,07,09,17,24,26,28,29,,,2.2,1.1,1.3*38
$GPGSV,3,1,12,02,27,179,47,04,50,141,50,05,16,298,39,07,64,041,51*7C
$GPGSV,3,2,12,09,51,296,49,17,49,046,39,24,43,071,48,26,11,224,43*79
$GPGSV,3,3,12,28,24,097,44,29,05,215,37,35,10,105,39,44,00,000,00*7D
$GPGLL,3925.9293,N,11945.9145,W,181254,A,D*56
$GPBOD,,T,,M,,*47
$PGRME,3.7,M,5.1,M,6.6,M*2E
$PGRMZ,4504,f,3*2E
$GPRTE,1,1,c,*37

$GPRMC,181256,A,3925.9134,N,11945.9044,W,31.9,153.8,070106,15.2,E,D*04
$GPRMB,A,,,,,,,,,,,,A,D*0E
$GPGGA,181256,3925.9134,N,11945.9044,W,2,10,1.3,1372.6,M,-22.1,M,,*47
$GPGSA,A,2,02,04,05,07,09,17,24,26,28,29,,,2.5,1.3,1.1*3E
$GPGSV,3,1,12,02,27,179,47,04,50,141,50,05,16,298,38,07,64,041,51*7D
$GPGSV,3,2,12,09,51,296,49,17,49,046,40,24,43,071,47,26,11,224,43*78
$GPGSV,3,3,12,28,24,097,44,29,05,215,36,35,10,105,40,44,00,000,00*72
$GPGLL,3925.9134,N,11945.9044,W,181256,A,D*5A
$GPBOD,,T,,M,,*47
$PGRME,4.4,M,5.1,M,7.2,M*2F
$PGRMZ,4503,f,2*28
$GPRTE,1,1,c,*37

$GPRMC,181258,A,3925.8982,N,11945.8946,W,30.9,153.1,070106,15.2,E,D*0C
$GPRMB,A,,,,,,,,,,,,A,D*0E
$GPGGA,181258,3925.8982,N,11945.8946,W,2,10,1.3,1372.6,M,-22.1,M,,*47
$GPGSA,A,2,02,04,05,07,09,17,24,26,28,29,,,2.5,1.3,1.4*3B
$GPGSV,3,1,12,02,27,179,46,04,50,141,50,05,16,298,38,07,64,041,51*7C
$GPGSV,3,2,12,09,51,296,49,17,49,046,39,24,43,071,47,26,11,224,43*76
$GPGSV,3,3,12,28,24,097,44,29,05,215,36,35,10,105,39,44,00,000,00*7C
$GPGLL,3925.8982,N,11945.8946,W,181258,A,D*5A
$GPBOD,,T,,M,,*47
$PGRME,4.4,M,5.1,M,7.2,M*2F
$PGRMZ,4503,f,2*28
$GPRTE,1,1,c,*37

$GPRMC,181300,A,3925.8833,N,11945.8851,W,29.2,154.3,070106,15.2,E,D*0A
$GPRMB,A,,,,,,,,,,,,A,D*0E
$GPGGA,181300,3925.8833,N,11945.8851,W,2,10,1.0,1372.5,M,-22.1,M,,*47
$GPGSA,A,2,02,04,05,07,09,17,24,26,28,29,,,2.0,1.0,1.4*3D
$GPGSV,3,1,12,02,27,179,45,04,50,141,50,05,16,298,38,07,64,041,51*7F
$GPGSV,3,2,12,09,51,296,49,17,49,046,39,24,43,071,47,26,11,224,43*76
$GPGSV,3,3,12,28,24,097,44,29,05,215,36,35,10,105,38,44,00,000,00*7D
$GPGLL,3925.8833,N,11945.8851,W,181300,A,D*5A
$GPBOD,,T,,M,,*47
$PGRME,3.7,M,5.1,M,6.5,M*2D
$PGRMZ,4503,f,2*28
$GPRTE,1,1,c,*37

$GPRMC,181302,A,3925.8697,N,11945.8763,W,26.9,153.4,070106,15.2,E,D*02
$GPRMB,A,,,,,,,,,,,,A,D*0E
$GPGGA,181302,3925.8697,N,11945.8763,W,2,10,1.4,1372.5,M,-22.1,M,,*4F
$GPGSA,A,2,02,04,05,07,09,17,24,26,28,29,,,2.3,1.4,1.0*3E
$GPGSV,3,1,12,02,27,179,46,04,50,141,50,05,16,298,38,07,64,041,51*7C
$GPGSV,3,2,12,09,51,296,49,17,49,046,40,24,43,071,47,26,11,224,43*78
$GPGSV,3,3,12,28,24,097,44,29,05,215,36,35,10,105,00,44,00,000,00*76
$GPGLL,3925.8697,N,11945.8763,W,181302,A,D*56
$GPBOD,,T,,M,,*47
$PGRME,3.7,M,5.1,M,6.5,M*2D
$PGRMZ,4503,f,2*28
$GPRTE,1,1,c,*37

$GPRMC,181304,A,3925.8571,N,11945.8682,W,24.5,153.5,070106,15.2,E,D*0E
$GPRMB,A,,,,,,,,,,,,A,D*0E
$GPGGA,181304,3925.8571,N,11945.8682,W,2,09,1.8,1372.6,M,-22.1,M,,*4B
$GPGSA,A,2,02,04,05,07,09,17,24,26,28,,,,2.6,1.8,1.0*3C
$GPGSV,3,1,12,02,27,179,45,04,50,141,50,05,16,298,38,07,64,041,52*7C
$GPGSV,3,2,12,09,51,296,48,17,49,046,40,24,43,071,47,26,11,224,43*79
$GPGSV,3,3,12,28,24,097,45,29,05,215,36,35,10,105,35,44,00,000,00*71
$GPGLL,3925.8571,N,11945.8682,W,181304,A,D*55
$GPBOD,,T,,M,,*47
$PGRME,5.1,M,5.1,M,7.6,M*2F
$PGRMZ,4503,f,2*28
$GPRTE,1,1,c,*37

$GPRMC,181306,A,3925.8458,N,11945.8609,W,22.5,153.4,070106,15.2,E,D*02
$GPRMB,A,,,,,,,,,,,,A,D*0E
$GPGGA,181306,3925.8458,N,11945.8609,W,2,09,1.4,1372.8,M,-22.1,M,,*42
$GPGSA,A,2,02,04,05,07,09,17,24,26,28,,,,2.7,1.4,1.2*33
$GPGSV,3,1,12,02,27,179,45,04,50,141,50,05,16,298,38,07,64,041,52*7C
$GPGSV,3,2,12,09,51,296,49,17,49,046,40,24,43,071,47,26,11,224,42*79
$GPGSV,3,3,12,28,24,097,45,29,05,215,36,35,10,105,36,44,00,000,00*72
$GPGLL,3925.8458,N,11945.8609,W,181306,A,D*5E
$GPBOD,,T,,M,,*47
$PGRME,6.2,M,5.1,M,8.5,M*23
$PGRMZ,4504,f,2*2F
$GPRTE,1,1,c,*37

$GPRMC,181308,A,3925.8352,N,11945.8544,W,21.3,154.3,070106,15.2,E,D*0E
$GPRMB,A,,,,,,,,,,,,A,D*0E
$GPGGA,181308,3925.8352,N,11945.8544,W,2,10,1.3,1373.1,M,-22.1,M,,*4C
$GPGSA,A,2,02,04,05,07,09,17,24,26,28,29,,,2.6,1.3,1.5*39
$GPGSV,3,1,12,02,27,179,46,04,50,141,50,05,16,298,37,07,64,041,52*70
$GPGSV,3,2,12,09,51,296,49,17,49,046,40,24,43,071,47,26,11,224,41*7A
$GPGSV,3,3,12,28,24,097,44,29,05,215,37,35,10,105,36,44,00,000,00*72
$GPGLL,3925.8352,N,11945.8544,W,181308,A,D*57
$GPBOD,,T,,M,,*47
$PGRME,3.6,M,5.1,M,6.5,M*2C
$PGRMZ,4505,f,2*2E
$GPRTE,1,1,c,*37

$GPRMC,181310,A,3925.8255,N,11945.8480,W,21.3,152.0,070106,15.2,E,D*0D
$GPRMB,A,,,,,,,,,,,,A,D*0E
$GPGGA,181310,3925.8255,N,11945.8480,W,2,10,1.0,1373.5,M,-22.1,M,,*4D
$GPGSA,A,2,02,04,05,07,09,17,24,26,28,29,,,1.9,1.0,1.1*32
$GPGSV,3,1,12,02,27,179,46,04,50,141,51,05,16,298,39,07,64,041,51*7C
$GPGSV,3,2,12,09,51,296,49,17,49,046,39,24,43,071,48,26,11,224,42*78
$GPGSV,3,3,12,28,24,097,43,29,05,215,40,35,10,105,00,44,00,000,00*70
$GPGLL,3925.8255,N,11945.8480,W,181310,A,D*51
$GPBOD,,T,,M,,*47
$PGRME,3.6,M,5.1,M,6.5,M*2C
$PGRMZ,4506,f,2*2D
$GPRTE,1,1,c,*37

$GPRMC,181312,A,3925.8154,N,11945.8418,W,21.6,154.0,070106,15.2,E,D*0F
$GPRMB,A,,,,,,,,,,,,A,D*0E
$GPGGA,181312,3925.8154,N,11945.8418,W,2,10,1.4,1374.0,M,-22.1,M,,*4A
$GPGSA,A,2,02,04,05,07,09,17,24,26,28,29,,,2.2,1.4,1.0*3F
